,stop_id,stop_name,event_name,description,categories,url
0,8014474,Waldshut,Tower,,,https://go.sygic.com/travel/place?id=poi:14692471
1,8014474,Waldshut,Observation Tower,,['hiking'],https://go.sygic.com/travel/place?id=poi:19530662
2,8014558,Singen (Hohentwiel),Observation Tower,,['hiking'],https://go.sygic.com/travel/place?id=poi:14152785
3,8014558,Singen (Hohentwiel),Hegau Tower,,,https://go.sygic.com/travel/place?id=poi:20093456
4,8014558,Singen (Hohentwiel),Life Guard Tower,,,https://go.sygic.com/travel/place?id=poi:16702060
5,8014558,Singen (Hohentwiel),Hegau-Tower,,['traveling'],https://go.sygic.com/travel/place?id=poi:2598223
6,8014558,Singen (Hohentwiel),Hegau-Tower,,['traveling'],https://go.sygic.com/travel/place?id=poi:2598224
7,8014586,Konstanz,Tower,,,https://go.sygic.com/travel/place?id=poi:18764969
8,8014586,Konstanz,Tower,,,https://go.sygic.com/travel/place?id=poi:14920323
9,8014586,Konstanz,Tower,,,https://go.sygic.com/travel/place?id=poi:14920317
10,8014586,Konstanz,Tower,,,https://go.sygic.com/travel/place?id=poi:14925807
11,8014586,Konstanz,Tower,,,https://go.sygic.com/travel/place?id=poi:14922312
12,8014586,Konstanz,Observation Tower,,['hiking'],https://go.sygic.com/travel/place?id=poi:3061670
13,8500010,Basel SBB,Vitra Slide Tower,"The Vitra Slide Tower is a 30.74 meter high observation tower located in the Vitra Campus in Weil am Rhein, Germany.",['sightseeing'],https://go.sygic.com/travel/place?id=poi:2500092
14,8500010,Basel SBB,Exhibition Tower,"The Basler Messeturm is the third tallest building in Basel, Switzerland. Completed in 2003, it has 32 floors and is 105 m tall. ",['eating'],https://go.sygic.com/travel/place?id=poi:10563
15,8500010,Basel SBB,Observation Tower,,['hiking'],https://go.sygic.com/travel/place?id=poi:19856719
16,8500010,Basel SBB,Observation Tower,,['hiking'],https://go.sygic.com/travel/place?id=poi:16805890
17,8500010,Basel SBB,Observation Tower,,['hiking'],https://go.sygic.com/travel/place?id=poi:14397896
18,8500016,Basel St. Johann,Vitra Slide Tower,"The Vitra Slide Tower is a 30.74 meter high observation tower located in the Vitra Campus in Weil am Rhein, Germany.",['sightseeing'],https://go.sygic.com/travel/place?id=poi:2500092
19,8500016,Basel St. Johann,Exhibition Tower,"The Basler Messeturm is the third tallest building in Basel, Switzerland. Completed in 2003, it has 32 floors and is 105 m tall. ",['eating'],https://go.sygic.com/travel/place?id=poi:10563
20,8500016,Basel St. Johann,Observation Tower,,['hiking'],https://go.sygic.com/travel/place?id=poi:19856719
21,8500016,Basel St. Johann,Observation Tower,,['hiking'],https://go.sygic.com/travel/place?id=poi:14397896
22,8500020,Muttenz,Vitra Slide Tower,"The Vitra Slide Tower is a 30.74 meter high observation tower located in the Vitra Campus in Weil am Rhein, Germany.",['sightseeing'],https://go.sygic.com/travel/place?id=poi:2500092
23,8500020,Muttenz,Exhibition Tower,"The Basler Messeturm is the third tallest building in Basel, Switzerland. Completed in 2003, it has 32 floors and is 105 m tall. ",['eating'],https://go.sygic.com/travel/place?id=poi:10563
24,8500020,Muttenz,Tower,,,https://go.sygic.com/travel/place?id=poi:11425180
25,8500020,Muttenz,Observation Tower,,['hiking'],https://go.sygic.com/travel/place?id=poi:19856719
26,8500020,Muttenz,Observation Tower,,['hiking'],https://go.sygic.com/travel/place?id=poi:14397896
27,8500021,Pratteln,Exhibition Tower,"The Basler Messeturm is the third tallest building in Basel, Switzerland. Completed in 2003, it has 32 floors and is 105 m tall. ",['eating'],https://go.sygic.com/travel/place?id=poi:10563
28,8500021,Pratteln,Tower,,,https://go.sygic.com/travel/place?id=poi:11425180
29,8500021,Pratteln,Observation Tower,,['hiking'],https://go.sygic.com/travel/place?id=poi:14397896
30,8500022,Frenkendorf-Füllinsdorf,Tower,,,https://go.sygic.com/travel/place?id=poi:11425180
31,8500022,Frenkendorf-Füllinsdorf,Observation Tower,,['hiking'],https://go.sygic.com/travel/place?id=poi:10976090
32,8500023,Liestal,Tower,,,https://go.sygic.com/travel/place?id=poi:11425180
33,8500023,Liestal,Observation Tower,,['hiking'],https://go.sygic.com/travel/place?id=poi:10976090
34,8500024,Lausen,Tower,,,https://go.sygic.com/travel/place?id=poi:11425180
35,8500024,Lausen,Observation Tower,,['hiking'],https://go.sygic.com/travel/place?id=poi:10976090
36,8500025,Itingen,Tower,,,https://go.sygic.com/travel/place?id=poi:11425180
37,8500025,Itingen,Observation Tower,,['hiking'],https://go.sygic.com/travel/place?id=poi:10976090
38,8500026,Sissach,Tower,,,https://go.sygic.com/travel/place?id=poi:11425180
39,8500026,Sissach,Observation Tower,,['hiking'],https://go.sygic.com/travel/place?id=poi:10976090
40,8500027,Gelterkinden,Tower,,,https://go.sygic.com/travel/place?id=poi:11425180
41,8500027,Gelterkinden,Observation Tower,,['hiking'],https://go.sygic.com/travel/place?id=poi:10976090
42,8500028,Tecknau,Observation Tower,,['hiking'],https://go.sygic.com/travel/place?id=poi:10976090
43,8500035,Läufelfingen,Swiss Prime Tower Bornwald,,['hiking'],https://go.sygic.com/travel/place?id=poi:13185096
44,8500035,Läufelfingen,Observation Tower,,['hiking'],https://go.sygic.com/travel/place?id=poi:10976090
45,8500105,Moutier,Tower of Moron,"This pleasant, undemanding hike is well worth the efforts - the lookout tower will reward you with fantastic views of Jurassic mountains.",['hiking'],https://go.sygic.com/travel/place?id=poi:10761
46,8500113,Laufen,Observation Tower,,['hiking'],https://go.sygic.com/travel/place?id=poi:16805890
47,8500114,Zwingen,Observation Tower,,['hiking'],https://go.sygic.com/travel/place?id=poi:16805890
48,8500115,Grellingen,Observation Tower,,['hiking'],https://go.sygic.com/travel/place?id=poi:16805890
49,8500117,Aesch,Observation Tower,,['hiking'],https://go.sygic.com/travel/place?id=poi:19856719
50,8500117,Aesch,Observation Tower,,['hiking'],https://go.sygic.com/travel/place?id=poi:16805890
51,8500118,Dornach-Arlesheim,Exhibition Tower,"The Basler Messeturm is the third tallest building in Basel, Switzerland. Completed in 2003, it has 32 floors and is 105 m tall. ",['eating'],https://go.sygic.com/travel/place?id=poi:10563
52,8500118,Dornach-Arlesheim,Tower,,,https://go.sygic.com/travel/place?id=poi:11425180
53,8500118,Dornach-Arlesheim,Observation Tower,,['hiking'],https://go.sygic.com/travel/place?id=poi:19856719
54,8500118,Dornach-Arlesheim,Observation Tower,,['hiking'],https://go.sygic.com/travel/place?id=poi:16805890
55,8500119,Münchenstein,Vitra Slide Tower,"The Vitra Slide Tower is a 30.74 meter high observation tower located in the Vitra Campus in Weil am Rhein, Germany.",['sightseeing'],https://go.sygic.com/travel/place?id=poi:2500092
56,8500119,Münchenstein,Exhibition Tower,"The Basler Messeturm is the third tallest building in Basel, Switzerland. Completed in 2003, it has 32 floors and is 105 m tall. ",['eating'],https://go.sygic.com/travel/place?id=poi:10563
57,8500119,Münchenstein,Tower,,,https://go.sygic.com/travel/place?id=poi:11425180
58,8500119,Münchenstein,Observation Tower,,['hiking'],https://go.sygic.com/travel/place?id=poi:19856719
59,8500119,Münchenstein,Observation Tower,,['hiking'],https://go.sygic.com/travel/place?id=poi:14397896
60,8500119,Münchenstein,Observation Tower,,['hiking'],https://go.sygic.com/travel/place?id=poi:16805890
61,8500121,Courfaivre,Tower of Moron,"This pleasant, undemanding hike is well worth the efforts - the lookout tower will reward you with fantastic views of Jurassic mountains.",['hiking'],https://go.sygic.com/travel/place?id=poi:10761
62,8500121,Courfaivre,Observation Tower,,['hiking'],https://go.sygic.com/travel/place?id=poi:17154785
63,8500122,Bassecourt,Tower of Moron,"This pleasant, undemanding hike is well worth the efforts - the lookout tower will reward you with fantastic views of Jurassic mountains.",['hiking'],https://go.sygic.com/travel/place?id=poi:10761
64,8500122,Bassecourt,Observation Tower,,['hiking'],https://go.sygic.com/travel/place?id=poi:17154785
65,8500123,Glovelier,Tower of Moron,"This pleasant, undemanding hike is well worth the efforts - the lookout tower will reward you with fantastic views of Jurassic mountains.",['hiking'],https://go.sygic.com/travel/place?id=poi:10761
66,8500123,Glovelier,Observation Tower,,['hiking'],https://go.sygic.com/travel/place?id=poi:17154785
67,8500125,Courgenay,Observation Tower,,['hiking'],https://go.sygic.com/travel/place?id=poi:17154785
68,8500126,Porrentruy,Observation Tower,,['hiking'],https://go.sygic.com/travel/place?id=poi:17154785
69,8500136,Basel Dreispitz,Vitra Slide Tower,"The Vitra Slide Tower is a 30.74 meter high observation tower located in the Vitra Campus in Weil am Rhein, Germany.",['sightseeing'],https://go.sygic.com/travel/place?id=poi:2500092
70,8500136,Basel Dreispitz,Exhibition Tower,"The Basler Messeturm is the third tallest building in Basel, Switzerland. Completed in 2003, it has 32 floors and is 105 m tall. ",['eating'],https://go.sygic.com/travel/place?id=poi:10563
71,8500136,Basel Dreispitz,Tower,,,https://go.sygic.com/travel/place?id=poi:11425180
72,8500136,Basel Dreispitz,Observation Tower,,['hiking'],https://go.sygic.com/travel/place?id=poi:19856719
73,8500136,Basel Dreispitz,Observation Tower,,['hiking'],https://go.sygic.com/travel/place?id=poi:14397896
74,8500203,Bettlach,Clock Tower,The clock tower is the Solothurn's oldest construction standing there since the 13th century.,['sightseeing'],https://go.sygic.com/travel/place?id=poi:10546
75,8500204,Selzach,Observation Tower,,['hiking'],https://go.sygic.com/travel/place?id=poi:7798701
76,8500204,Selzach,Clock Tower,The clock tower is the Solothurn's oldest construction standing there since the 13th century.,['sightseeing'],https://go.sygic.com/travel/place?id=poi:10546
77,8500205,Bellach,Observation Tower,,['hiking'],https://go.sygic.com/travel/place?id=poi:7798701
78,8500205,Bellach,Clock Tower,The clock tower is the Solothurn's oldest construction standing there since the 13th century.,['sightseeing'],https://go.sygic.com/travel/place?id=poi:10546
79,8500206,Solothurn West,Observation Tower,,['hiking'],https://go.sygic.com/travel/place?id=poi:7798701
80,8500206,Solothurn West,Clock Tower,The clock tower is the Solothurn's oldest construction standing there since the 13th century.,['sightseeing'],https://go.sygic.com/travel/place?id=poi:10546
81,8500207,Solothurn,Observation Tower,,['hiking'],https://go.sygic.com/travel/place?id=poi:7798701
82,8500207,Solothurn,Clock Tower,The clock tower is the Solothurn's oldest construction standing there since the 13th century.,['sightseeing'],https://go.sygic.com/travel/place?id=poi:10546
83,8500208,Luterbach-Attisholz,Observation Tower,,['hiking'],https://go.sygic.com/travel/place?id=poi:7798701
84,8500208,Luterbach-Attisholz,Clock Tower,The clock tower is the Solothurn's oldest construction standing there since the 13th century.,['sightseeing'],https://go.sygic.com/travel/place?id=poi:10546
85,8500209,Deitingen,Observation Tower,,['hiking'],https://go.sygic.com/travel/place?id=poi:7798701
86,8500209,Deitingen,Clock Tower,The clock tower is the Solothurn's oldest construction standing there since the 13th century.,['sightseeing'],https://go.sygic.com/travel/place?id=poi:10546
87,8500210,Wangen an der Aare,Clock Tower,The clock tower is the Solothurn's oldest construction standing there since the 13th century.,['sightseeing'],https://go.sygic.com/travel/place?id=poi:10546
88,8500214,Egerkingen,Swiss Prime Tower Bornwald,,['hiking'],https://go.sygic.com/travel/place?id=poi:13185096
89,8500215,Hägendorf,Swiss Prime Tower Bornwald,,['hiking'],https://go.sygic.com/travel/place?id=poi:13185096
90,8500216,Wangen bei Olten,Swiss Prime Tower Bornwald,,['hiking'],https://go.sygic.com/travel/place?id=poi:13185096
91,8500216,Wangen bei Olten,Tower,,,https://go.sygic.com/travel/place?id=poi:36920522
92,8500217,Olten Hammer,Swiss Prime Tower Bornwald,,['hiking'],https://go.sygic.com/travel/place?id=poi:13185096
93,8500217,Olten Hammer,Tower,,,https://go.sygic.com/travel/place?id=poi:36920522
94,8500218,Olten,Swiss Prime Tower Bornwald,,['hiking'],https://go.sygic.com/travel/place?id=poi:13185096
95,8500218,Olten,Tower,,,https://go.sygic.com/travel/place?id=poi:36920522
96,8500300,Kaiseraugst,Exhibition Tower,"The Basler Messeturm is the third tallest building in Basel, Switzerland. Completed in 2003, it has 32 floors and is 105 m tall. ",['eating'],https://go.sygic.com/travel/place?id=poi:10563
97,8500300,Kaiseraugst,Tower,,,https://go.sygic.com/travel/place?id=poi:11425180
98,8500300,Kaiseraugst,Observation Tower,,['hiking'],https://go.sygic.com/travel/place?id=poi:14397896
99,8500301,Rheinfelden,Tower,,,https://go.sygic.com/travel/place?id=poi:11425180
100,8500301,Rheinfelden,Observation Tower,,['hiking'],https://go.sygic.com/travel/place?id=poi:10976090
101,8500302,Möhlin,Observation Tower,,['hiking'],https://go.sygic.com/travel/place?id=poi:2576438
102,8500302,Möhlin,Tower,,,https://go.sygic.com/travel/place?id=poi:11425180
103,8500302,Möhlin,Observation Tower,,['hiking'],https://go.sygic.com/travel/place?id=poi:10976090
104,8500303,Mumpf,Observation Tower,,['hiking'],https://go.sygic.com/travel/place?id=poi:2576438
105,8500304,Eiken,Observation Tower,,['hiking'],https://go.sygic.com/travel/place?id=poi:2576438
106,8500305,Frick,Observation Tower,,['hiking'],https://go.sygic.com/travel/place?id=poi:2576438
107,8500313,Rheinfelden Augarten,Tower,,,https://go.sygic.com/travel/place?id=poi:11425180
108,8500313,Rheinfelden Augarten,Observation Tower,,['hiking'],https://go.sygic.com/travel/place?id=poi:10976090
109,8500320,Stein-Säckingen,Observation Tower,,['hiking'],https://go.sygic.com/travel/place?id=poi:2576438
110,8500329,Koblenz,Tower,,,https://go.sygic.com/travel/place?id=poi:14692471
111,8500329,Koblenz,Observation Tower,,['hiking'],https://go.sygic.com/travel/place?id=poi:19530662
112,8501000,Zimeysa,Molard Tower,A military tower from the 14th century dominating the Molard Square. Surrounded by the buzz of lively restaurants.,['sightseeing'],https://go.sygic.com/travel/place?id=poi:2609
113,8501000,Zimeysa,Tower,,['sightseeing'],https://go.sygic.com/travel/place?id=poi:8839902
114,8501000,Zimeysa,Tower,,,https://go.sygic.com/travel/place?id=poi:8301480
115,8501000,Zimeysa,Goldorak Tower (Air Traffic Control),,,https://go.sygic.com/travel/place?id=poi:26375031
116,8501000,Zimeysa,Observation Tower,,['hiking'],https://go.sygic.com/travel/place?id=poi:13442042
117,8501001,La Plaine,Goldorak Tower (Air Traffic Control),,,https://go.sygic.com/travel/place?id=poi:26375031
118,8501001,La Plaine,Observation Tower,,['hiking'],https://go.sygic.com/travel/place?id=poi:13442042
119,8501002,Russin,Tower,,['sightseeing'],https://go.sygic.com/travel/place?id=poi:8839902
120,8501002,Russin,Goldorak Tower (Air Traffic Control),,,https://go.sygic.com/travel/place?id=poi:26375031
121,8501002,Russin,Observation Tower,,['hiking'],https://go.sygic.com/travel/place?id=poi:13442042
122,8501003,Satigny,Molard Tower,A military tower from the 14th century dominating the Molard Square. Surrounded by the buzz of lively restaurants.,['sightseeing'],https://go.sygic.com/travel/place?id=poi:2609
123,8501003,Satigny,Tower,,,https://go.sygic.com/travel/place?id=poi:8301480
124,8501003,Satigny,Goldorak Tower (Air Traffic Control),,,https://go.sygic.com/travel/place?id=poi:26375031
125,8501003,Satigny,Observation Tower,,['hiking'],https://go.sygic.com/travel/place?id=poi:13442042
126,8501006,Meyrin,Molard Tower,A military tower from the 14th century dominating the Molard Square. Surrounded by the buzz of lively restaurants.,['sightseeing'],https://go.sygic.com/travel/place?id=poi:2609
127,8501006,Meyrin,Tower,,['sightseeing'],https://go.sygic.com/travel/place?id=poi:8839902
128,8501006,Meyrin,Tower,,,https://go.sygic.com/travel/place?id=poi:8301480
129,8501006,Meyrin,Goldorak Tower (Air Traffic Control),,,https://go.sygic.com/travel/place?id=poi:26375031
130,8501006,Meyrin,Observation Tower,,['hiking'],https://go.sygic.com/travel/place?id=poi:13442042
131,8501006,Meyrin,Observation Tower,,['hiking'],https://go.sygic.com/travel/place?id=poi:6961111
132,8501007,Vernier,Molard Tower,A military tower from the 14th century dominating the Molard Square. Surrounded by the buzz of lively restaurants.,['sightseeing'],https://go.sygic.com/travel/place?id=poi:2609
133,8501007,Vernier,Tower,,['sightseeing'],https://go.sygic.com/travel/place?id=poi:8839902
134,8501007,Vernier,Tower,,,https://go.sygic.com/travel/place?id=poi:8301480
135,8501007,Vernier,Goldorak Tower (Air Traffic Control),,,https://go.sygic.com/travel/place?id=poi:26375031
136,8501007,Vernier,Observation Tower,,['hiking'],https://go.sygic.com/travel/place?id=poi:13442042
137,8501007,Vernier,Observation Tower,,['hiking'],https://go.sygic.com/travel/place?id=poi:6961111
138,8501008,Genève,Molard Tower,A military tower from the 14th century dominating the Molard Square. Surrounded by the buzz of lively restaurants.,['sightseeing'],https://go.sygic.com/travel/place?id=poi:2609
139,8501008,Genève,Tower,,['sightseeing'],https://go.sygic.com/travel/place?id=poi:8839902
140,8501008,Genève,Tower,,,https://go.sygic.com/travel/place?id=poi:8301480
141,8501008,Genève,Monnetier-Mornex (FM towercast),,,https://go.sygic.com/travel/place?id=poi:4430596
142,8501008,Genève,Goldorak Tower (Air Traffic Control),,,https://go.sygic.com/travel/place?id=poi:26375031
143,8501008,Genève,Observation Tower,,['hiking'],https://go.sygic.com/travel/place?id=poi:13442042
144,8501008,Genève,Observation Tower,,['hiking'],https://go.sygic.com/travel/place?id=poi:6961111
145,8501012,Creux-de-Genthod,Molard Tower,A military tower from the 14th century dominating the Molard Square. Surrounded by the buzz of lively restaurants.,['sightseeing'],https://go.sygic.com/travel/place?id=poi:2609
146,8501012,Creux-de-Genthod,Tower,,,https://go.sygic.com/travel/place?id=poi:8301480
147,8501012,Creux-de-Genthod,Goldorak Tower (Air Traffic Control),,,https://go.sygic.com/travel/place?id=poi:26375031
148,8501012,Creux-de-Genthod,Observation Tower,,['hiking'],https://go.sygic.com/travel/place?id=poi:13442042
149,8501012,Creux-de-Genthod,Observation Tower,,['hiking'],https://go.sygic.com/travel/place?id=poi:6961111
150,8501014,Mies,Goldorak Tower (Air Traffic Control),,,https://go.sygic.com/travel/place?id=poi:26375031
151,8501014,Mies,Observation Tower,,['hiking'],https://go.sygic.com/travel/place?id=poi:6961111
152,8501020,Chambésy,Molard Tower,A military tower from the 14th century dominating the Molard Square. Surrounded by the buzz of lively restaurants.,['sightseeing'],https://go.sygic.com/travel/place?id=poi:2609
153,8501020,Chambésy,Tower,,,https://go.sygic.com/travel/place?id=poi:8301480
154,8501020,Chambésy,Goldorak Tower (Air Traffic Control),,,https://go.sygic.com/travel/place?id=poi:26375031
155,8501020,Chambésy,Observation Tower,,['hiking'],https://go.sygic.com/travel/place?id=poi:13442042
156,8501020,Chambésy,Observation Tower,,['hiking'],https://go.sygic.com/travel/place?id=poi:6961111
157,8501022,Versoix,Molard Tower,A military tower from the 14th century dominating the Molard Square. Surrounded by the buzz of lively restaurants.,['sightseeing'],https://go.sygic.com/travel/place?id=poi:2609
158,8501022,Versoix,Tower,,,https://go.sygic.com/travel/place?id=poi:8301480
159,8501022,Versoix,Goldorak Tower (Air Traffic Control),,,https://go.sygic.com/travel/place?id=poi:26375031
160,8501022,Versoix,Observation Tower,,['hiking'],https://go.sygic.com/travel/place?id=poi:13442042
161,8501022,Versoix,Observation Tower,,['hiking'],https://go.sygic.com/travel/place?id=poi:6961111
162,8501023,Coppet,Observation Tower,,['hiking'],https://go.sygic.com/travel/place?id=poi:6961111
163,8501026,Genève-Aéroport,Molard Tower,A military tower from the 14th century dominating the Molard Square. Surrounded by the buzz of lively restaurants.,['sightseeing'],https://go.sygic.com/travel/place?id=poi:2609
164,8501026,Genève-Aéroport,Tower,,,https://go.sygic.com/travel/place?id=poi:8301480
165,8501026,Genève-Aéroport,Goldorak Tower (Air Traffic Control),,,https://go.sygic.com/travel/place?id=poi:26375031
166,8501026,Genève-Aéroport,Observation Tower,,['hiking'],https://go.sygic.com/travel/place?id=poi:13442042
167,8501026,Genève-Aéroport,Observation Tower,,['hiking'],https://go.sygic.com/travel/place?id=poi:6961111
168,8501045,Denges-Echandens,Lausanne Sauvabelin Tower,"The Tour de Sauvabelin is a wooden tower located in the Sauvabelin forest, Lausanne, Switzerland.","['hiking', 'sightseeing']",https://go.sygic.com/travel/place?id=poi:10638
169,8501045,Denges-Echandens,Ale Tower,This cylindrical tower is a silent remnant of Lausanne's medieval past when it served as a part of the fortification.,"['hiking', 'sightseeing']",https://go.sygic.com/travel/place?id=poi:10502
170,8501047,Morges-St-Jean,Ale Tower,This cylindrical tower is a silent remnant of Lausanne's medieval past when it served as a part of the fortification.,"['hiking', 'sightseeing']",https://go.sygic.com/travel/place?id=poi:10502
171,8501048,Lonay-Préverenges,Lausanne Sauvabelin Tower,"The Tour de Sauvabelin is a wooden tower located in the Sauvabelin forest, Lausanne, Switzerland.","['hiking', 'sightseeing']",https://go.sygic.com/travel/place?id=poi:10638
172,8501048,Lonay-Préverenges,Ale Tower,This cylindrical tower is a silent remnant of Lausanne's medieval past when it served as a part of the fortification.,"['hiking', 'sightseeing']",https://go.sygic.com/travel/place?id=poi:10502
173,8501106,Croy-Romainmôtier,Observation Tower,,['hiking'],https://go.sygic.com/travel/place?id=poi:33617557
174,8501107,Arnex,Observation Tower,,['hiking'],https://go.sygic.com/travel/place?id=poi:33617557
175,8501108,La Sarraz,Observation Tower,,['hiking'],https://go.sygic.com/travel/place?id=poi:33617557
176,8501110,Ependes,Observation Tower,,['hiking'],https://go.sygic.com/travel/place?id=poi:19015130
177,8501110,Ependes,Observation Tower,,['hiking'],https://go.sygic.com/travel/place?id=poi:33617557
178,8501111,Essert-Pittet,Observation Tower,,['hiking'],https://go.sygic.com/travel/place?id=poi:33617557
179,8501112,Chavornay,Observation Tower,,['hiking'],https://go.sygic.com/travel/place?id=poi:33617557
180,8501113,Bavois,Observation Tower,,['hiking'],https://go.sygic.com/travel/place?id=poi:33617557
181,8501114,Eclépens,Observation Tower,,['hiking'],https://go.sygic.com/travel/place?id=poi:33617557
182,8501116,Vufflens-la-Ville,Lausanne Sauvabelin Tower,"The Tour de Sauvabelin is a wooden tower located in the Sauvabelin forest, Lausanne, Switzerland.","['hiking', 'sightseeing']",https://go.sygic.com/travel/place?id=poi:10638
183,8501116,Vufflens-la-Ville,Ale Tower,This cylindrical tower is a silent remnant of Lausanne's medieval past when it served as a part of the fortification.,"['hiking', 'sightseeing']",https://go.sygic.com/travel/place?id=poi:10502
184,8501117,Bussigny,Lausanne Sauvabelin Tower,"The Tour de Sauvabelin is a wooden tower located in the Sauvabelin forest, Lausanne, Switzerland.","['hiking', 'sightseeing']",https://go.sygic.com/travel/place?id=poi:10638
185,8501117,Bussigny,Ale Tower,This cylindrical tower is a silent remnant of Lausanne's medieval past when it served as a part of the fortification.,"['hiking', 'sightseeing']",https://go.sygic.com/travel/place?id=poi:10502
186,8501118,Renens VD,Lausanne Sauvabelin Tower,"The Tour de Sauvabelin is a wooden tower located in the Sauvabelin forest, Lausanne, Switzerland.","['hiking', 'sightseeing']",https://go.sygic.com/travel/place?id=poi:10638
187,8501118,Renens VD,Ale Tower,This cylindrical tower is a silent remnant of Lausanne's medieval past when it served as a part of the fortification.,"['hiking', 'sightseeing']",https://go.sygic.com/travel/place?id=poi:10502
188,8501118,Renens VD,Observation Tower,,['hiking'],https://go.sygic.com/travel/place?id=poi:21569256
189,8501120,Lausanne,Lausanne Sauvabelin Tower,"The Tour de Sauvabelin is a wooden tower located in the Sauvabelin forest, Lausanne, Switzerland.","['hiking', 'sightseeing']",https://go.sygic.com/travel/place?id=poi:10638
190,8501120,Lausanne,Ale Tower,This cylindrical tower is a silent remnant of Lausanne's medieval past when it served as a part of the fortification.,"['hiking', 'sightseeing']",https://go.sygic.com/travel/place?id=poi:10502
191,8501120,Lausanne,Observation Tower,,['hiking'],https://go.sygic.com/travel/place?id=poi:21569256
192,8501121,Pully,Lausanne Sauvabelin Tower,"The Tour de Sauvabelin is a wooden tower located in the Sauvabelin forest, Lausanne, Switzerland.","['hiking', 'sightseeing']",https://go.sygic.com/travel/place?id=poi:10638
193,8501121,Pully,Ale Tower,This cylindrical tower is a silent remnant of Lausanne's medieval past when it served as a part of the fortification.,"['hiking', 'sightseeing']",https://go.sygic.com/travel/place?id=poi:10502
194,8501121,Pully,Observation Tower,,['hiking'],https://go.sygic.com/travel/place?id=poi:21569256
195,8501122,Lutry,Lausanne Sauvabelin Tower,"The Tour de Sauvabelin is a wooden tower located in the Sauvabelin forest, Lausanne, Switzerland.","['hiking', 'sightseeing']",https://go.sygic.com/travel/place?id=poi:10638
196,8501122,Lutry,Ale Tower,This cylindrical tower is a silent remnant of Lausanne's medieval past when it served as a part of the fortification.,"['hiking', 'sightseeing']",https://go.sygic.com/travel/place?id=poi:10502
197,8501122,Lutry,Observation Tower,,['hiking'],https://go.sygic.com/travel/place?id=poi:21569256
198,8501122,Lutry,Mont Pèlerin TV Tower,,,https://go.sygic.com/travel/place?id=poi:20305358
199,8501123,Villette VD,Lausanne Sauvabelin Tower,"The Tour de Sauvabelin is a wooden tower located in the Sauvabelin forest, Lausanne, Switzerland.","['hiking', 'sightseeing']",https://go.sygic.com/travel/place?id=poi:10638
200,8501123,Villette VD,Ale Tower,This cylindrical tower is a silent remnant of Lausanne's medieval past when it served as a part of the fortification.,"['hiking', 'sightseeing']",https://go.sygic.com/travel/place?id=poi:10502
201,8501123,Villette VD,Observation Tower,,['hiking'],https://go.sygic.com/travel/place?id=poi:21569256
202,8501123,Villette VD,Mont Pèlerin TV Tower,,,https://go.sygic.com/travel/place?id=poi:20305358
203,8501124,Cully,Lausanne Sauvabelin Tower,"The Tour de Sauvabelin is a wooden tower located in the Sauvabelin forest, Lausanne, Switzerland.","['hiking', 'sightseeing']",https://go.sygic.com/travel/place?id=poi:10638
204,8501124,Cully,Ale Tower,This cylindrical tower is a silent remnant of Lausanne's medieval past when it served as a part of the fortification.,"['hiking', 'sightseeing']",https://go.sygic.com/travel/place?id=poi:10502
205,8501124,Cully,Observation Tower,,['hiking'],https://go.sygic.com/travel/place?id=poi:21569256
206,8501124,Cully,Mont Pèlerin TV Tower,,,https://go.sygic.com/travel/place?id=poi:20305358
207,8501125,Epesses,Lausanne Sauvabelin Tower,"The Tour de Sauvabelin is a wooden tower located in the Sauvabelin forest, Lausanne, Switzerland.","['hiking', 'sightseeing']",https://go.sygic.com/travel/place?id=poi:10638
208,8501125,Epesses,Ale Tower,This cylindrical tower is a silent remnant of Lausanne's medieval past when it served as a part of the fortification.,"['hiking', 'sightseeing']",https://go.sygic.com/travel/place?id=poi:10502
209,8501125,Epesses,Observation Tower,,['hiking'],https://go.sygic.com/travel/place?id=poi:21569256
210,8501125,Epesses,Mont Pèlerin TV Tower,,,https://go.sygic.com/travel/place?id=poi:20305358
211,8501126,Rivaz,Mont Pèlerin TV Tower,,,https://go.sygic.com/travel/place?id=poi:20305358
212,8501127,St-Saphorin,Mont Pèlerin TV Tower,,,https://go.sygic.com/travel/place?id=poi:20305358
213,8501200,Vevey,Mont Pèlerin TV Tower,,,https://go.sygic.com/travel/place?id=poi:20305358
214,8501201,La Tour-de-Peilz,Mont Pèlerin TV Tower,,,https://go.sygic.com/travel/place?id=poi:20305358
215,8501202,Burier,Mont Pèlerin TV Tower,,,https://go.sygic.com/travel/place?id=poi:20305358
216,8501203,Clarens,Mont Pèlerin TV Tower,,,https://go.sygic.com/travel/place?id=poi:20305358
217,8501300,Montreux,Mont Pèlerin TV Tower,,,https://go.sygic.com/travel/place?id=poi:20305358
218,8501426,Bouveret,Chalets Toper,,,https://go.sygic.com/travel/place?id=poi:29498700
219,8502000,Aarburg-Oftringen,Swiss Prime Tower Bornwald,,['hiking'],https://go.sygic.com/travel/place?id=poi:13185096
220,8502000,Aarburg-Oftringen,Tower,,,https://go.sygic.com/travel/place?id=poi:36920522
221,8502001,Zofingen,Swiss Prime Tower Bornwald,,['hiking'],https://go.sygic.com/travel/place?id=poi:13185096
222,8502002,Brittnau-Wikon,Swiss Prime Tower Bornwald,,['hiking'],https://go.sygic.com/travel/place?id=poi:13185096
223,8502003,Reiden,Observation Tower,,['hiking'],https://go.sygic.com/travel/place?id=poi:35668906
224,8502004,Dagmersellen,Observation Tower,,['hiking'],https://go.sygic.com/travel/place?id=poi:11638082
225,8502004,Dagmersellen,Observation Tower,,['hiking'],https://go.sygic.com/travel/place?id=poi:35668906
226,8502004,Dagmersellen,Kastelen Tower Ruins,Kastelen Tower is a ruined castle in the municipality of Alberswil of the Canton of Lucerne in Switzerland.,"['hiking', 'sightseeing']",https://go.sygic.com/travel/place?id=poi:6863722
227,8502005,Nebikon,Observation Tower,,['hiking'],https://go.sygic.com/travel/place?id=poi:11638082
228,8502005,Nebikon,Observation Tower,,['hiking'],https://go.sygic.com/travel/place?id=poi:35668906
229,8502005,Nebikon,Kastelen Tower Ruins,Kastelen Tower is a ruined castle in the municipality of Alberswil of the Canton of Lucerne in Switzerland.,"['hiking', 'sightseeing']",https://go.sygic.com/travel/place?id=poi:6863722
230,8502006,Wauwil,Observation Tower,,['hiking'],https://go.sygic.com/travel/place?id=poi:11638082
231,8502006,Wauwil,Observation Tower,,['hiking'],https://go.sygic.com/travel/place?id=poi:35668906
232,8502006,Wauwil,Kastelen Tower Ruins,Kastelen Tower is a ruined castle in the municipality of Alberswil of the Canton of Lucerne in Switzerland.,"['hiking', 'sightseeing']",https://go.sygic.com/travel/place?id=poi:6863722
233,8502007,Sursee,Observation Tower,,['hiking'],https://go.sygic.com/travel/place?id=poi:11638082
234,8502007,Sursee,Observation Tower,,['hiking'],https://go.sygic.com/travel/place?id=poi:35668906
235,8502007,Sursee,Observation Tower,,['hiking'],https://go.sygic.com/travel/place?id=poi:38258037
236,8502007,Sursee,Kastelen Tower Ruins,Kastelen Tower is a ruined castle in the municipality of Alberswil of the Canton of Lucerne in Switzerland.,"['hiking', 'sightseeing']",https://go.sygic.com/travel/place?id=poi:6863722
237,8502008,Nottwil,Observation Tower,,['hiking'],https://go.sygic.com/travel/place?id=poi:35668906
238,8502008,Nottwil,Observation Tower,,['hiking'],https://go.sygic.com/travel/place?id=poi:38258037
239,8502009,Sempach-Neuenkirch,Observation Tower,,['hiking'],https://go.sygic.com/travel/place?id=poi:38258037
240,8502010,St. Erhard-Knutwil,Observation Tower,,['hiking'],https://go.sygic.com/travel/place?id=poi:11638082
241,8502010,St. Erhard-Knutwil,Observation Tower,,['hiking'],https://go.sygic.com/travel/place?id=poi:35668906
242,8502010,St. Erhard-Knutwil,Kastelen Tower Ruins,Kastelen Tower is a ruined castle in the municipality of Alberswil of the Canton of Lucerne in Switzerland.,"['hiking', 'sightseeing']",https://go.sygic.com/travel/place?id=poi:6863722
243,8502011,Oberkirch LU,Observation Tower,,['hiking'],https://go.sygic.com/travel/place?id=poi:11638082
244,8502011,Oberkirch LU,Observation Tower,,['hiking'],https://go.sygic.com/travel/place?id=poi:35668906
245,8502011,Oberkirch LU,Observation Tower,,['hiking'],https://go.sygic.com/travel/place?id=poi:38258037
246,8502011,Oberkirch LU,Kastelen Tower Ruins,Kastelen Tower is a ruined castle in the municipality of Alberswil of the Canton of Lucerne in Switzerland.,"['hiking', 'sightseeing']",https://go.sygic.com/travel/place?id=poi:6863722
247,8502022,Eschenbach,Observation Tower,,['hiking'],https://go.sygic.com/travel/place?id=poi:38258037
248,8502023,Ballwil,Observation Tower,,['hiking'],https://go.sygic.com/travel/place?id=poi:38258037
249,8502024,Hochdorf,Observation Tower,,['hiking'],https://go.sygic.com/travel/place?id=poi:38258037
250,8502025,Baldegg,Observation Tower,,['hiking'],https://go.sygic.com/travel/place?id=poi:38258037
251,8502027,Hitzkirch,Observation Tower,,['hiking'],https://go.sygic.com/travel/place?id=poi:38258037
252,8502034,Beinwil am See,Observation Tower,,['hiking'],https://go.sygic.com/travel/place?id=poi:38258037
253,8502100,Safenwil,Swiss Prime Tower Bornwald,,['hiking'],https://go.sygic.com/travel/place?id=poi:13185096
254,8502100,Safenwil,Tower,,,https://go.sygic.com/travel/place?id=poi:36920522
255,8502103,Suhr,Tower,,,https://go.sygic.com/travel/place?id=poi:36920522
256,8502110,Dulliken,Swiss Prime Tower Bornwald,,['hiking'],https://go.sygic.com/travel/place?id=poi:13185096
257,8502110,Dulliken,Tower,,,https://go.sygic.com/travel/place?id=poi:36920522
258,8502111,Däniken,Swiss Prime Tower Bornwald,,['hiking'],https://go.sygic.com/travel/place?id=poi:13185096
259,8502111,Däniken,Tower,,,https://go.sygic.com/travel/place?id=poi:36920522
260,8502112,Schönenwerd SO,Swiss Prime Tower Bornwald,,['hiking'],https://go.sygic.com/travel/place?id=poi:13185096
261,8502112,Schönenwerd SO,Tower,,,https://go.sygic.com/travel/place?id=poi:36920522
262,8502113,Aarau,Tower,,,https://go.sygic.com/travel/place?id=poi:36920522
263,8502208,Horgen Oberdorf,Felsenegg-Girstel TV-tower,The Felsenegg Tower is a broadcasting tower located nearby Felseneggbahn mountain station on the Felsenegg vantage point in the canton of…,,https://go.sygic.com/travel/place?id=poi:5179412
264,8502209,Oberrieden Dorf,Felsenegg-Girstel TV-tower,The Felsenegg Tower is a broadcasting tower located nearby Felseneggbahn mountain station on the Felsenegg vantage point in the canton of…,,https://go.sygic.com/travel/place?id=poi:5179412
265,8502220,Urdorf,Coop Pronto Prime Tower,,['shopping'],https://go.sygic.com/travel/place?id=poi:10546192
266,8502220,Urdorf,Prime Tower,,,https://go.sygic.com/travel/place?id=poi:24578886
267,8502220,Urdorf,Kieser Training Prime Tower,,['doing_sports'],https://go.sygic.com/travel/place?id=poi:18511323
268,8502220,Urdorf,Swisscom Tower,,,https://go.sygic.com/travel/place?id=poi:26987747
269,8502220,Urdorf,ZKB Prime Tower,,,https://go.sygic.com/travel/place?id=poi:8784267
270,8502220,Urdorf,Parkshaus Prime Tower,,['traveling'],https://go.sygic.com/travel/place?id=poi:7027007
271,8502221,Birmensdorf ZH,Felsenegg-Girstel TV-tower,The Felsenegg Tower is a broadcasting tower located nearby Felseneggbahn mountain station on the Felsenegg vantage point in the canton of…,,https://go.sygic.com/travel/place?id=poi:5179412
272,8502221,Birmensdorf ZH,Coop Pronto Prime Tower,,['shopping'],https://go.sygic.com/travel/place?id=poi:10546192
273,8502221,Birmensdorf ZH,Prime Tower,,,https://go.sygic.com/travel/place?id=poi:24578886
274,8502221,Birmensdorf ZH,Kieser Training Prime Tower,,['doing_sports'],https://go.sygic.com/travel/place?id=poi:18511323
275,8502221,Birmensdorf ZH,Swisscom Tower,,,https://go.sygic.com/travel/place?id=poi:26987747
276,8502221,Birmensdorf ZH,ZKB Prime Tower,,,https://go.sygic.com/travel/place?id=poi:8784267
277,8502221,Birmensdorf ZH,Parkshaus Prime Tower,,['traveling'],https://go.sygic.com/travel/place?id=poi:7027007
278,8502222,Bonstetten-Wettswil,Felsenegg-Girstel TV-tower,The Felsenegg Tower is a broadcasting tower located nearby Felseneggbahn mountain station on the Felsenegg vantage point in the canton of…,,https://go.sygic.com/travel/place?id=poi:5179412
279,8502222,Bonstetten-Wettswil,Coop Pronto Prime Tower,,['shopping'],https://go.sygic.com/travel/place?id=poi:10546192
280,8502222,Bonstetten-Wettswil,Prime Tower,,,https://go.sygic.com/travel/place?id=poi:24578886
281,8502222,Bonstetten-Wettswil,Kieser Training Prime Tower,,['doing_sports'],https://go.sygic.com/travel/place?id=poi:18511323
282,8502222,Bonstetten-Wettswil,Swisscom Tower,,,https://go.sygic.com/travel/place?id=poi:26987747
283,8502222,Bonstetten-Wettswil,ZKB Prime Tower,,,https://go.sygic.com/travel/place?id=poi:8784267
284,8502222,Bonstetten-Wettswil,Parkshaus Prime Tower,,['traveling'],https://go.sygic.com/travel/place?id=poi:7027007
285,8502223,Hedingen,Felsenegg-Girstel TV-tower,The Felsenegg Tower is a broadcasting tower located nearby Felseneggbahn mountain station on the Felsenegg vantage point in the canton of…,,https://go.sygic.com/travel/place?id=poi:5179412
286,8502224,Affoltern am Albis,Felsenegg-Girstel TV-tower,The Felsenegg Tower is a broadcasting tower located nearby Felseneggbahn mountain station on the Felsenegg vantage point in the canton of…,,https://go.sygic.com/travel/place?id=poi:5179412
287,8502229,Urdorf Weihermatt,Felsenegg-Girstel TV-tower,The Felsenegg Tower is a broadcasting tower located nearby Felseneggbahn mountain station on the Felsenegg vantage point in the canton of…,,https://go.sygic.com/travel/place?id=poi:5179412
288,8502229,Urdorf Weihermatt,Coop Pronto Prime Tower,,['shopping'],https://go.sygic.com/travel/place?id=poi:10546192
289,8502229,Urdorf Weihermatt,Prime Tower,,,https://go.sygic.com/travel/place?id=poi:24578886
290,8502229,Urdorf Weihermatt,Kieser Training Prime Tower,,['doing_sports'],https://go.sygic.com/travel/place?id=poi:18511323
291,8502229,Urdorf Weihermatt,Swisscom Tower,,,https://go.sygic.com/travel/place?id=poi:26987747
292,8502229,Urdorf Weihermatt,ZKB Prime Tower,,,https://go.sygic.com/travel/place?id=poi:8784267
293,8502229,Urdorf Weihermatt,Parkshaus Prime Tower,,['traveling'],https://go.sygic.com/travel/place?id=poi:7027007
294,8503000,Zürich HB,Felsenegg-Girstel TV-tower,The Felsenegg Tower is a broadcasting tower located nearby Felseneggbahn mountain station on the Felsenegg vantage point in the canton of…,,https://go.sygic.com/travel/place?id=poi:5179412
295,8503000,Zürich HB,Tower,,,https://go.sygic.com/travel/place?id=poi:37332332
296,8503000,Zürich HB,Coop Pronto Prime Tower,,['shopping'],https://go.sygic.com/travel/place?id=poi:10546192
297,8503000,Zürich HB,Prime Tower,,,https://go.sygic.com/travel/place?id=poi:24578886
298,8503000,Zürich HB,Kieser Training Prime Tower,,['doing_sports'],https://go.sygic.com/travel/place?id=poi:18511323
299,8503000,Zürich HB,Swisscom Tower,,,https://go.sygic.com/travel/place?id=poi:26987747
300,8503000,Zürich HB,ZKB Prime Tower,,,https://go.sygic.com/travel/place?id=poi:8784267
301,8503000,Zürich HB,Wintsch-Tonercote,,['shopping'],https://go.sygic.com/travel/place?id=poi:13564328
302,8503000,Zürich HB,Parkshaus Prime Tower,,['traveling'],https://go.sygic.com/travel/place?id=poi:7027007
303,8503001,Zürich Altstetten,Felsenegg-Girstel TV-tower,The Felsenegg Tower is a broadcasting tower located nearby Felseneggbahn mountain station on the Felsenegg vantage point in the canton of…,,https://go.sygic.com/travel/place?id=poi:5179412
304,8503001,Zürich Altstetten,Tower,,,https://go.sygic.com/travel/place?id=poi:37332332
305,8503001,Zürich Altstetten,Coop Pronto Prime Tower,,['shopping'],https://go.sygic.com/travel/place?id=poi:10546192
306,8503001,Zürich Altstetten,Prime Tower,,,https://go.sygic.com/travel/place?id=poi:24578886
307,8503001,Zürich Altstetten,Kieser Training Prime Tower,,['doing_sports'],https://go.sygic.com/travel/place?id=poi:18511323
308,8503001,Zürich Altstetten,Swisscom Tower,,,https://go.sygic.com/travel/place?id=poi:26987747
309,8503001,Zürich Altstetten,ZKB Prime Tower,,,https://go.sygic.com/travel/place?id=poi:8784267
310,8503001,Zürich Altstetten,Parkshaus Prime Tower,,['traveling'],https://go.sygic.com/travel/place?id=poi:7027007
311,8503003,Zürich Stadelhofen,Felsenegg-Girstel TV-tower,The Felsenegg Tower is a broadcasting tower located nearby Felseneggbahn mountain station on the Felsenegg vantage point in the canton of…,,https://go.sygic.com/travel/place?id=poi:5179412
312,8503003,Zürich Stadelhofen,Tower,,,https://go.sygic.com/travel/place?id=poi:37332332
313,8503003,Zürich Stadelhofen,Coop Pronto Prime Tower,,['shopping'],https://go.sygic.com/travel/place?id=poi:10546192
314,8503003,Zürich Stadelhofen,Prime Tower,,,https://go.sygic.com/travel/place?id=poi:24578886
315,8503003,Zürich Stadelhofen,Kieser Training Prime Tower,,['doing_sports'],https://go.sygic.com/travel/place?id=poi:18511323
316,8503003,Zürich Stadelhofen,Swisscom Tower,,,https://go.sygic.com/travel/place?id=poi:26987747
317,8503003,Zürich Stadelhofen,ZKB Prime Tower,,,https://go.sygic.com/travel/place?id=poi:8784267
318,8503003,Zürich Stadelhofen,Parkshaus Prime Tower,,['traveling'],https://go.sygic.com/travel/place?id=poi:7027007
319,8503004,Zürich Tiefenbrunnen,Felsenegg-Girstel TV-tower,The Felsenegg Tower is a broadcasting tower located nearby Felseneggbahn mountain station on the Felsenegg vantage point in the canton of…,,https://go.sygic.com/travel/place?id=poi:5179412
320,8503004,Zürich Tiefenbrunnen,Tower,,,https://go.sygic.com/travel/place?id=poi:37332332
321,8503004,Zürich Tiefenbrunnen,Coop Pronto Prime Tower,,['shopping'],https://go.sygic.com/travel/place?id=poi:10546192
322,8503004,Zürich Tiefenbrunnen,Prime Tower,,,https://go.sygic.com/travel/place?id=poi:24578886
323,8503004,Zürich Tiefenbrunnen,Kieser Training Prime Tower,,['doing_sports'],https://go.sygic.com/travel/place?id=poi:18511323
324,8503004,Zürich Tiefenbrunnen,Swisscom Tower,,,https://go.sygic.com/travel/place?id=poi:26987747
325,8503004,Zürich Tiefenbrunnen,Observation Tower,,['hiking'],https://go.sygic.com/travel/place?id=poi:19015127
326,8503004,Zürich Tiefenbrunnen,ZKB Prime Tower,,,https://go.sygic.com/travel/place?id=poi:8784267
327,8503004,Zürich Tiefenbrunnen,Parkshaus Prime Tower,,['traveling'],https://go.sygic.com/travel/place?id=poi:7027007
328,8503006,Zürich Oerlikon,Tower,,,https://go.sygic.com/travel/place?id=poi:37332332
329,8503006,Zürich Oerlikon,Coop Pronto Prime Tower,,['shopping'],https://go.sygic.com/travel/place?id=poi:10546192
330,8503006,Zürich Oerlikon,Prime Tower,,,https://go.sygic.com/travel/place?id=poi:24578886
331,8503006,Zürich Oerlikon,Kieser Training Prime Tower,,['doing_sports'],https://go.sygic.com/travel/place?id=poi:18511323
332,8503006,Zürich Oerlikon,Swisscom Tower,,,https://go.sygic.com/travel/place?id=poi:26987747
333,8503006,Zürich Oerlikon,ZKB Prime Tower,,,https://go.sygic.com/travel/place?id=poi:8784267
334,8503006,Zürich Oerlikon,Wintsch-Tonercote,,['shopping'],https://go.sygic.com/travel/place?id=poi:13564328
335,8503006,Zürich Oerlikon,Parkshaus Prime Tower,,['traveling'],https://go.sygic.com/travel/place?id=poi:7027007
336,8503007,Zürich Seebach,Tower,,,https://go.sygic.com/travel/place?id=poi:37332332
337,8503007,Zürich Seebach,Coop Pronto Prime Tower,,['shopping'],https://go.sygic.com/travel/place?id=poi:10546192
338,8503007,Zürich Seebach,Prime Tower,,,https://go.sygic.com/travel/place?id=poi:24578886
339,8503007,Zürich Seebach,Kieser Training Prime Tower,,['doing_sports'],https://go.sygic.com/travel/place?id=poi:18511323
340,8503007,Zürich Seebach,Swisscom Tower,,,https://go.sygic.com/travel/place?id=poi:26987747
341,8503007,Zürich Seebach,ZKB Prime Tower,,,https://go.sygic.com/travel/place?id=poi:8784267
342,8503007,Zürich Seebach,Wintsch-Tonercote,,['shopping'],https://go.sygic.com/travel/place?id=poi:13564328
343,8503007,Zürich Seebach,Parkshaus Prime Tower,,['traveling'],https://go.sygic.com/travel/place?id=poi:7027007
344,8503008,Zürich Affoltern,Tower,,,https://go.sygic.com/travel/place?id=poi:37332332
345,8503008,Zürich Affoltern,Coop Pronto Prime Tower,,['shopping'],https://go.sygic.com/travel/place?id=poi:10546192
346,8503008,Zürich Affoltern,Prime Tower,,,https://go.sygic.com/travel/place?id=poi:24578886
347,8503008,Zürich Affoltern,Kieser Training Prime Tower,,['doing_sports'],https://go.sygic.com/travel/place?id=poi:18511323
348,8503008,Zürich Affoltern,Swisscom Tower,,,https://go.sygic.com/travel/place?id=poi:26987747
349,8503008,Zürich Affoltern,ZKB Prime Tower,,,https://go.sygic.com/travel/place?id=poi:8784267
350,8503008,Zürich Affoltern,Wintsch-Tonercote,,['shopping'],https://go.sygic.com/travel/place?id=poi:13564328
351,8503008,Zürich Affoltern,Parkshaus Prime Tower,,['traveling'],https://go.sygic.com/travel/place?id=poi:7027007
352,8503009,Zürich Wollishofen,Felsenegg-Girstel TV-tower,The Felsenegg Tower is a broadcasting tower located nearby Felseneggbahn mountain station on the Felsenegg vantage point in the canton of…,,https://go.sygic.com/travel/place?id=poi:5179412
353,8503009,Zürich Wollishofen,Tower,,,https://go.sygic.com/travel/place?id=poi:37332332
354,8503009,Zürich Wollishofen,Coop Pronto Prime Tower,,['shopping'],https://go.sygic.com/travel/place?id=poi:10546192
355,8503009,Zürich Wollishofen,Prime Tower,,,https://go.sygic.com/travel/place?id=poi:24578886
356,8503009,Zürich Wollishofen,Kieser Training Prime Tower,,['doing_sports'],https://go.sygic.com/travel/place?id=poi:18511323
357,8503009,Zürich Wollishofen,Swisscom Tower,,,https://go.sygic.com/travel/place?id=poi:26987747
358,8503009,Zürich Wollishofen,ZKB Prime Tower,,,https://go.sygic.com/travel/place?id=poi:8784267
359,8503009,Zürich Wollishofen,Parkshaus Prime Tower,,['traveling'],https://go.sygic.com/travel/place?id=poi:7027007
360,8503010,Zürich Enge,Felsenegg-Girstel TV-tower,The Felsenegg Tower is a broadcasting tower located nearby Felseneggbahn mountain station on the Felsenegg vantage point in the canton of…,,https://go.sygic.com/travel/place?id=poi:5179412
361,8503010,Zürich Enge,Tower,,,https://go.sygic.com/travel/place?id=poi:37332332
362,8503010,Zürich Enge,Coop Pronto Prime Tower,,['shopping'],https://go.sygic.com/travel/place?id=poi:10546192
363,8503010,Zürich Enge,Prime Tower,,,https://go.sygic.com/travel/place?id=poi:24578886
364,8503010,Zürich Enge,Kieser Training Prime Tower,,['doing_sports'],https://go.sygic.com/travel/place?id=poi:18511323
365,8503010,Zürich Enge,Swisscom Tower,,,https://go.sygic.com/travel/place?id=poi:26987747
366,8503010,Zürich Enge,ZKB Prime Tower,,,https://go.sygic.com/travel/place?id=poi:8784267
367,8503010,Zürich Enge,Parkshaus Prime Tower,,['traveling'],https://go.sygic.com/travel/place?id=poi:7027007
368,8503011,Zürich Wiedikon,Felsenegg-Girstel TV-tower,The Felsenegg Tower is a broadcasting tower located nearby Felseneggbahn mountain station on the Felsenegg vantage point in the canton of…,,https://go.sygic.com/travel/place?id=poi:5179412
369,8503011,Zürich Wiedikon,Tower,,,https://go.sygic.com/travel/place?id=poi:37332332
370,8503011,Zürich Wiedikon,Coop Pronto Prime Tower,,['shopping'],https://go.sygic.com/travel/place?id=poi:10546192
371,8503011,Zürich Wiedikon,Prime Tower,,,https://go.sygic.com/travel/place?id=poi:24578886
372,8503011,Zürich Wiedikon,Kieser Training Prime Tower,,['doing_sports'],https://go.sygic.com/travel/place?id=poi:18511323
373,8503011,Zürich Wiedikon,Swisscom Tower,,,https://go.sygic.com/travel/place?id=poi:26987747
374,8503011,Zürich Wiedikon,ZKB Prime Tower,,,https://go.sygic.com/travel/place?id=poi:8784267
375,8503011,Zürich Wiedikon,Parkshaus Prime Tower,,['traveling'],https://go.sygic.com/travel/place?id=poi:7027007
376,8503015,Zürich Wipkingen,Felsenegg-Girstel TV-tower,The Felsenegg Tower is a broadcasting tower located nearby Felseneggbahn mountain station on the Felsenegg vantage point in the canton of…,,https://go.sygic.com/travel/place?id=poi:5179412
377,8503015,Zürich Wipkingen,Tower,,,https://go.sygic.com/travel/place?id=poi:37332332
378,8503015,Zürich Wipkingen,Coop Pronto Prime Tower,,['shopping'],https://go.sygic.com/travel/place?id=poi:10546192
379,8503015,Zürich Wipkingen,Prime Tower,,,https://go.sygic.com/travel/place?id=poi:24578886
380,8503015,Zürich Wipkingen,Kieser Training Prime Tower,,['doing_sports'],https://go.sygic.com/travel/place?id=poi:18511323
381,8503015,Zürich Wipkingen,Swisscom Tower,,,https://go.sygic.com/travel/place?id=poi:26987747
382,8503015,Zürich Wipkingen,ZKB Prime Tower,,,https://go.sygic.com/travel/place?id=poi:8784267
383,8503015,Zürich Wipkingen,Wintsch-Tonercote,,['shopping'],https://go.sygic.com/travel/place?id=poi:13564328
384,8503015,Zürich Wipkingen,Parkshaus Prime Tower,,['traveling'],https://go.sygic.com/travel/place?id=poi:7027007
385,8503016,Zürich Flughafen,Tower,,,https://go.sygic.com/travel/place?id=poi:37332332
386,8503016,Zürich Flughafen,Coop Pronto Prime Tower,,['shopping'],https://go.sygic.com/travel/place?id=poi:10546192
387,8503016,Zürich Flughafen,Prime Tower,,,https://go.sygic.com/travel/place?id=poi:24578886
388,8503016,Zürich Flughafen,Kieser Training Prime Tower,,['doing_sports'],https://go.sygic.com/travel/place?id=poi:18511323
389,8503016,Zürich Flughafen,Swisscom Tower,,,https://go.sygic.com/travel/place?id=poi:26987747
390,8503016,Zürich Flughafen,ZKB Prime Tower,,,https://go.sygic.com/travel/place?id=poi:8784267
391,8503016,Zürich Flughafen,Wintsch-Tonercote,,['shopping'],https://go.sygic.com/travel/place?id=poi:13564328
392,8503016,Zürich Flughafen,Parkshaus Prime Tower,,['traveling'],https://go.sygic.com/travel/place?id=poi:7027007
393,8503020,Zürich Hardbrücke,Felsenegg-Girstel TV-tower,The Felsenegg Tower is a broadcasting tower located nearby Felseneggbahn mountain station on the Felsenegg vantage point in the canton of…,,https://go.sygic.com/travel/place?id=poi:5179412
394,8503020,Zürich Hardbrücke,Tower,,,https://go.sygic.com/travel/place?id=poi:37332332
395,8503020,Zürich Hardbrücke,Coop Pronto Prime Tower,,['shopping'],https://go.sygic.com/travel/place?id=poi:10546192
396,8503020,Zürich Hardbrücke,Prime Tower,,,https://go.sygic.com/travel/place?id=poi:24578886
397,8503020,Zürich Hardbrücke,Kieser Training Prime Tower,,['doing_sports'],https://go.sygic.com/travel/place?id=poi:18511323
398,8503020,Zürich Hardbrücke,Swisscom Tower,,,https://go.sygic.com/travel/place?id=poi:26987747
399,8503020,Zürich Hardbrücke,ZKB Prime Tower,,,https://go.sygic.com/travel/place?id=poi:8784267
400,8503020,Zürich Hardbrücke,Parkshaus Prime Tower,,['traveling'],https://go.sygic.com/travel/place?id=poi:7027007
401,8503100,Zollikon,Felsenegg-Girstel TV-tower,The Felsenegg Tower is a broadcasting tower located nearby Felseneggbahn mountain station on the Felsenegg vantage point in the canton of…,,https://go.sygic.com/travel/place?id=poi:5179412
402,8503100,Zollikon,Tower,,,https://go.sygic.com/travel/place?id=poi:37332332
403,8503100,Zollikon,Coop Pronto Prime Tower,,['shopping'],https://go.sygic.com/travel/place?id=poi:10546192
404,8503100,Zollikon,Prime Tower,,,https://go.sygic.com/travel/place?id=poi:24578886
405,8503100,Zollikon,Kieser Training Prime Tower,,['doing_sports'],https://go.sygic.com/travel/place?id=poi:18511323
406,8503100,Zollikon,Swisscom Tower,,,https://go.sygic.com/travel/place?id=poi:26987747
407,8503100,Zollikon,Observation Tower,,['hiking'],https://go.sygic.com/travel/place?id=poi:19015127
408,8503100,Zollikon,ZKB Prime Tower,,,https://go.sygic.com/travel/place?id=poi:8784267
409,8503100,Zollikon,Parkshaus Prime Tower,,['traveling'],https://go.sygic.com/travel/place?id=poi:7027007
410,8503101,Küsnacht ZH,Felsenegg-Girstel TV-tower,The Felsenegg Tower is a broadcasting tower located nearby Felseneggbahn mountain station on the Felsenegg vantage point in the canton of…,,https://go.sygic.com/travel/place?id=poi:5179412
411,8503101,Küsnacht ZH,Tower,,,https://go.sygic.com/travel/place?id=poi:37332332
412,8503101,Küsnacht ZH,Coop Pronto Prime Tower,,['shopping'],https://go.sygic.com/travel/place?id=poi:10546192
413,8503101,Küsnacht ZH,Prime Tower,,,https://go.sygic.com/travel/place?id=poi:24578886
414,8503101,Küsnacht ZH,Kieser Training Prime Tower,,['doing_sports'],https://go.sygic.com/travel/place?id=poi:18511323
415,8503101,Küsnacht ZH,Swisscom Tower,,,https://go.sygic.com/travel/place?id=poi:26987747
416,8503101,Küsnacht ZH,Observation Tower,,['hiking'],https://go.sygic.com/travel/place?id=poi:19015127
417,8503101,Küsnacht ZH,ZKB Prime Tower,,,https://go.sygic.com/travel/place?id=poi:8784267
418,8503101,Küsnacht ZH,Parkshaus Prime Tower,,['traveling'],https://go.sygic.com/travel/place?id=poi:7027007
419,8503102,Erlenbach ZH,Felsenegg-Girstel TV-tower,The Felsenegg Tower is a broadcasting tower located nearby Felseneggbahn mountain station on the Felsenegg vantage point in the canton of…,,https://go.sygic.com/travel/place?id=poi:5179412
420,8503102,Erlenbach ZH,Tower,,,https://go.sygic.com/travel/place?id=poi:37332332
421,8503102,Erlenbach ZH,Observation Tower,,['hiking'],https://go.sygic.com/travel/place?id=poi:19015127
422,8503103,Herrliberg-Feldmeilen,Felsenegg-Girstel TV-tower,The Felsenegg Tower is a broadcasting tower located nearby Felseneggbahn mountain station on the Felsenegg vantage point in the canton of…,,https://go.sygic.com/travel/place?id=poi:5179412
423,8503105,Uetikon,Observation Tower,,['hiking'],https://go.sygic.com/travel/place?id=poi:11744431
424,8503107,Stäfa,Observation Tower,,['hiking'],https://go.sygic.com/travel/place?id=poi:11744431
425,8503107,Stäfa,Tower Sports,,['shopping'],https://go.sygic.com/travel/place?id=poi:10933929
426,8503108,Uerikon,Observation Tower,,['hiking'],https://go.sygic.com/travel/place?id=poi:11905595
427,8503108,Uerikon,Observation Tower,,['hiking'],https://go.sygic.com/travel/place?id=poi:11744431
428,8503108,Uerikon,Tower Sports,,['shopping'],https://go.sygic.com/travel/place?id=poi:10933929
429,8503109,Feldbach,Bachtel Tower,"Bachtel Tower is a 60 m tall radio tower on 1,115 m high Bachtel mountain near Hinwil, Switzerland, overlooking the Zürcher Oberland. ",['hiking'],https://go.sygic.com/travel/place?id=poi:10135407
430,8503109,Feldbach,Observation Tower,,['hiking'],https://go.sygic.com/travel/place?id=poi:11905595
431,8503109,Feldbach,Observation Tower,,['hiking'],https://go.sygic.com/travel/place?id=poi:11744431
432,8503109,Feldbach,Tower Sports,,['shopping'],https://go.sygic.com/travel/place?id=poi:10933929
433,8503110,Rapperswil,Bachtel Tower,"Bachtel Tower is a 60 m tall radio tower on 1,115 m high Bachtel mountain near Hinwil, Switzerland, overlooking the Zürcher Oberland. ",['hiking'],https://go.sygic.com/travel/place?id=poi:10135407
434,8503110,Rapperswil,Observation Tower,,['hiking'],https://go.sygic.com/travel/place?id=poi:11905595
435,8503110,Rapperswil,Observation Tower,,['hiking'],https://go.sygic.com/travel/place?id=poi:11744431
436,8503110,Rapperswil,Tower Sports,,['shopping'],https://go.sygic.com/travel/place?id=poi:10933929
437,8503111,Winkel am Zürichsee,Felsenegg-Girstel TV-tower,The Felsenegg Tower is a broadcasting tower located nearby Felseneggbahn mountain station on the Felsenegg vantage point in the canton of…,,https://go.sygic.com/travel/place?id=poi:5179412
438,8503111,Winkel am Zürichsee,Observation Tower,,['hiking'],https://go.sygic.com/travel/place?id=poi:19015127
439,8503115,Schmerikon,Bachtel Tower,"Bachtel Tower is a 60 m tall radio tower on 1,115 m high Bachtel mountain near Hinwil, Switzerland, overlooking the Zürcher Oberland. ",['hiking'],https://go.sygic.com/travel/place?id=poi:10135407
440,8503115,Schmerikon,Observation Tower,,['hiking'],https://go.sygic.com/travel/place?id=poi:11905595
441,8503115,Schmerikon,Tower Sports,,['shopping'],https://go.sygic.com/travel/place?id=poi:10933929
442,8503116,Uznach,Observation Tower,,['hiking'],https://go.sygic.com/travel/place?id=poi:11905595
443,8503120,Jona,Bachtel Tower,"Bachtel Tower is a 60 m tall radio tower on 1,115 m high Bachtel mountain near Hinwil, Switzerland, overlooking the Zürcher Oberland. ",['hiking'],https://go.sygic.com/travel/place?id=poi:10135407
444,8503120,Jona,Observation Tower,,['hiking'],https://go.sygic.com/travel/place?id=poi:11905595
445,8503120,Jona,Observation Tower,,['hiking'],https://go.sygic.com/travel/place?id=poi:11744431
446,8503120,Jona,Tower Sports,,['shopping'],https://go.sygic.com/travel/place?id=poi:10933929
447,8503121,Rüti ZH,Bachtel Tower,"Bachtel Tower is a 60 m tall radio tower on 1,115 m high Bachtel mountain near Hinwil, Switzerland, overlooking the Zürcher Oberland. ",['hiking'],https://go.sygic.com/travel/place?id=poi:10135407
448,8503121,Rüti ZH,Observation Tower,,['hiking'],https://go.sygic.com/travel/place?id=poi:11905595
449,8503121,Rüti ZH,Observation Tower,,['hiking'],https://go.sygic.com/travel/place?id=poi:11744431
450,8503121,Rüti ZH,Tower Sports,,['shopping'],https://go.sygic.com/travel/place?id=poi:10933929
451,8503122,Bubikon,Bachtel Tower,"Bachtel Tower is a 60 m tall radio tower on 1,115 m high Bachtel mountain near Hinwil, Switzerland, overlooking the Zürcher Oberland. ",['hiking'],https://go.sygic.com/travel/place?id=poi:10135407
452,8503122,Bubikon,Observation Tower,,['hiking'],https://go.sygic.com/travel/place?id=poi:11905595
453,8503122,Bubikon,Observation Tower,,['hiking'],https://go.sygic.com/travel/place?id=poi:11744431
454,8503122,Bubikon,Tower Sports,,['shopping'],https://go.sygic.com/travel/place?id=poi:10933929
455,8503123,Wetzikon,Bachtel Tower,"Bachtel Tower is a 60 m tall radio tower on 1,115 m high Bachtel mountain near Hinwil, Switzerland, overlooking the Zürcher Oberland. ",['hiking'],https://go.sygic.com/travel/place?id=poi:10135407
456,8503123,Wetzikon,Observation Tower,,['hiking'],https://go.sygic.com/travel/place?id=poi:19015127
457,8503124,Aathal,Observation Tower,,['hiking'],https://go.sygic.com/travel/place?id=poi:19015127
458,8503125,Uster,Observation Tower,,['hiking'],https://go.sygic.com/travel/place?id=poi:19015127
459,8503126,Nänikon-Greifensee,Tower,,,https://go.sygic.com/travel/place?id=poi:37332332
460,8503126,Nänikon-Greifensee,Observation Tower,,['hiking'],https://go.sygic.com/travel/place?id=poi:19015127
461,8503126,Nänikon-Greifensee,Wintsch-Tonercote,,['shopping'],https://go.sygic.com/travel/place?id=poi:13564328
462,8503127,Schwerzenbach ZH,Tower,,,https://go.sygic.com/travel/place?id=poi:37332332
463,8503127,Schwerzenbach ZH,Observation Tower,,['hiking'],https://go.sygic.com/travel/place?id=poi:19015127
464,8503127,Schwerzenbach ZH,Wintsch-Tonercote,,['shopping'],https://go.sygic.com/travel/place?id=poi:13564328
465,8503128,Dübendorf,Tower,,,https://go.sygic.com/travel/place?id=poi:37332332
466,8503128,Dübendorf,Coop Pronto Prime Tower,,['shopping'],https://go.sygic.com/travel/place?id=poi:10546192
467,8503128,Dübendorf,Prime Tower,,,https://go.sygic.com/travel/place?id=poi:24578886
468,8503128,Dübendorf,Kieser Training Prime Tower,,['doing_sports'],https://go.sygic.com/travel/place?id=poi:18511323
469,8503128,Dübendorf,Swisscom Tower,,,https://go.sygic.com/travel/place?id=poi:26987747
470,8503128,Dübendorf,Observation Tower,,['hiking'],https://go.sygic.com/travel/place?id=poi:19015127
471,8503128,Dübendorf,ZKB Prime Tower,,,https://go.sygic.com/travel/place?id=poi:8784267
472,8503128,Dübendorf,Wintsch-Tonercote,,['shopping'],https://go.sygic.com/travel/place?id=poi:13564328
473,8503128,Dübendorf,Parkshaus Prime Tower,,['traveling'],https://go.sygic.com/travel/place?id=poi:7027007
474,8503129,Wallisellen,Tower,,,https://go.sygic.com/travel/place?id=poi:37332332
475,8503129,Wallisellen,Coop Pronto Prime Tower,,['shopping'],https://go.sygic.com/travel/place?id=poi:10546192
476,8503129,Wallisellen,Prime Tower,,,https://go.sygic.com/travel/place?id=poi:24578886
477,8503129,Wallisellen,Kieser Training Prime Tower,,['doing_sports'],https://go.sygic.com/travel/place?id=poi:18511323
478,8503129,Wallisellen,Swisscom Tower,,,https://go.sygic.com/travel/place?id=poi:26987747
479,8503129,Wallisellen,Observation Tower,,['hiking'],https://go.sygic.com/travel/place?id=poi:19015127
480,8503129,Wallisellen,ZKB Prime Tower,,,https://go.sygic.com/travel/place?id=poi:8784267
481,8503129,Wallisellen,Wintsch-Tonercote,,['shopping'],https://go.sygic.com/travel/place?id=poi:13564328
482,8503129,Wallisellen,Parkshaus Prime Tower,,['traveling'],https://go.sygic.com/travel/place?id=poi:7027007
483,8503130,Hinwil,Bachtel Tower,"Bachtel Tower is a 60 m tall radio tower on 1,115 m high Bachtel mountain near Hinwil, Switzerland, overlooking the Zürcher Oberland. ",['hiking'],https://go.sygic.com/travel/place?id=poi:10135407
484,8503130,Hinwil,Observation Tower,,['hiking'],https://go.sygic.com/travel/place?id=poi:11905595
485,8503130,Hinwil,Tower Sports,,['shopping'],https://go.sygic.com/travel/place?id=poi:10933929
486,8503134,Bauma,Bachtel Tower,"Bachtel Tower is a 60 m tall radio tower on 1,115 m high Bachtel mountain near Hinwil, Switzerland, overlooking the Zürcher Oberland. ",['hiking'],https://go.sygic.com/travel/place?id=poi:10135407
487,8503136,Fischenthal,Bachtel Tower,"Bachtel Tower is a 60 m tall radio tower on 1,115 m high Bachtel mountain near Hinwil, Switzerland, overlooking the Zürcher Oberland. ",['hiking'],https://go.sygic.com/travel/place?id=poi:10135407
488,8503138,Wald,Bachtel Tower,"Bachtel Tower is a 60 m tall radio tower on 1,115 m high Bachtel mountain near Hinwil, Switzerland, overlooking the Zürcher Oberland. ",['hiking'],https://go.sygic.com/travel/place?id=poi:10135407
489,8503138,Wald,Observation Tower,,['hiking'],https://go.sygic.com/travel/place?id=poi:11905595
490,8503138,Wald,Tower Sports,,['shopping'],https://go.sygic.com/travel/place?id=poi:10933929
491,8503139,Tann-Dürnten,Bachtel Tower,"Bachtel Tower is a 60 m tall radio tower on 1,115 m high Bachtel mountain near Hinwil, Switzerland, overlooking the Zürcher Oberland. ",['hiking'],https://go.sygic.com/travel/place?id=poi:10135407
492,8503139,Tann-Dürnten,Observation Tower,,['hiking'],https://go.sygic.com/travel/place?id=poi:11905595
493,8503139,Tann-Dürnten,Observation Tower,,['hiking'],https://go.sygic.com/travel/place?id=poi:11744431
494,8503139,Tann-Dürnten,Tower Sports,,['shopping'],https://go.sygic.com/travel/place?id=poi:10933929
495,8503141,Küsnacht Goldbach,Felsenegg-Girstel TV-tower,The Felsenegg Tower is a broadcasting tower located nearby Felseneggbahn mountain station on the Felsenegg vantage point in the canton of…,,https://go.sygic.com/travel/place?id=poi:5179412
496,8503141,Küsnacht Goldbach,Tower,,,https://go.sygic.com/travel/place?id=poi:37332332
497,8503141,Küsnacht Goldbach,Coop Pronto Prime Tower,,['shopping'],https://go.sygic.com/travel/place?id=poi:10546192
498,8503141,Küsnacht Goldbach,Prime Tower,,,https://go.sygic.com/travel/place?id=poi:24578886
499,8503141,Küsnacht Goldbach,Kieser Training Prime Tower,,['doing_sports'],https://go.sygic.com/travel/place?id=poi:18511323
500,8503141,Küsnacht Goldbach,Swisscom Tower,,,https://go.sygic.com/travel/place?id=poi:26987747
501,8503141,Küsnacht Goldbach,Observation Tower,,['hiking'],https://go.sygic.com/travel/place?id=poi:19015127
502,8503141,Küsnacht Goldbach,ZKB Prime Tower,,,https://go.sygic.com/travel/place?id=poi:8784267
503,8503141,Küsnacht Goldbach,Parkshaus Prime Tower,,['traveling'],https://go.sygic.com/travel/place?id=poi:7027007
504,8503147,Stettbach,Tower,,,https://go.sygic.com/travel/place?id=poi:37332332
505,8503147,Stettbach,Coop Pronto Prime Tower,,['shopping'],https://go.sygic.com/travel/place?id=poi:10546192
506,8503147,Stettbach,Prime Tower,,,https://go.sygic.com/travel/place?id=poi:24578886
507,8503147,Stettbach,Kieser Training Prime Tower,,['doing_sports'],https://go.sygic.com/travel/place?id=poi:18511323
508,8503147,Stettbach,Swisscom Tower,,,https://go.sygic.com/travel/place?id=poi:26987747
509,8503147,Stettbach,Observation Tower,,['hiking'],https://go.sygic.com/travel/place?id=poi:19015127
510,8503147,Stettbach,ZKB Prime Tower,,,https://go.sygic.com/travel/place?id=poi:8784267
511,8503147,Stettbach,Wintsch-Tonercote,,['shopping'],https://go.sygic.com/travel/place?id=poi:13564328
512,8503147,Stettbach,Parkshaus Prime Tower,,['traveling'],https://go.sygic.com/travel/place?id=poi:7027007
513,8503200,Kilchberg,Felsenegg-Girstel TV-tower,The Felsenegg Tower is a broadcasting tower located nearby Felseneggbahn mountain station on the Felsenegg vantage point in the canton of…,,https://go.sygic.com/travel/place?id=poi:5179412
514,8503200,Kilchberg,Tower,,,https://go.sygic.com/travel/place?id=poi:37332332
515,8503200,Kilchberg,Coop Pronto Prime Tower,,['shopping'],https://go.sygic.com/travel/place?id=poi:10546192
516,8503200,Kilchberg,Prime Tower,,,https://go.sygic.com/travel/place?id=poi:24578886
517,8503200,Kilchberg,Kieser Training Prime Tower,,['doing_sports'],https://go.sygic.com/travel/place?id=poi:18511323
518,8503200,Kilchberg,Swisscom Tower,,,https://go.sygic.com/travel/place?id=poi:26987747
519,8503200,Kilchberg,ZKB Prime Tower,,,https://go.sygic.com/travel/place?id=poi:8784267
520,8503200,Kilchberg,Parkshaus Prime Tower,,['traveling'],https://go.sygic.com/travel/place?id=poi:7027007
521,8503201,Rüschlikon,Felsenegg-Girstel TV-tower,The Felsenegg Tower is a broadcasting tower located nearby Felseneggbahn mountain station on the Felsenegg vantage point in the canton of…,,https://go.sygic.com/travel/place?id=poi:5179412
522,8503201,Rüschlikon,Tower,,,https://go.sygic.com/travel/place?id=poi:37332332
523,8503201,Rüschlikon,Coop Pronto Prime Tower,,['shopping'],https://go.sygic.com/travel/place?id=poi:10546192
524,8503201,Rüschlikon,Prime Tower,,,https://go.sygic.com/travel/place?id=poi:24578886
525,8503201,Rüschlikon,Kieser Training Prime Tower,,['doing_sports'],https://go.sygic.com/travel/place?id=poi:18511323
526,8503201,Rüschlikon,Swisscom Tower,,,https://go.sygic.com/travel/place?id=poi:26987747
527,8503201,Rüschlikon,ZKB Prime Tower,,,https://go.sygic.com/travel/place?id=poi:8784267
528,8503201,Rüschlikon,Parkshaus Prime Tower,,['traveling'],https://go.sygic.com/travel/place?id=poi:7027007
529,8503202,Thalwil,Felsenegg-Girstel TV-tower,The Felsenegg Tower is a broadcasting tower located nearby Felseneggbahn mountain station on the Felsenegg vantage point in the canton of…,,https://go.sygic.com/travel/place?id=poi:5179412
530,8503203,Oberrieden,Felsenegg-Girstel TV-tower,The Felsenegg Tower is a broadcasting tower located nearby Felseneggbahn mountain station on the Felsenegg vantage point in the canton of…,,https://go.sygic.com/travel/place?id=poi:5179412
531,8503204,Horgen,Felsenegg-Girstel TV-tower,The Felsenegg Tower is a broadcasting tower located nearby Felseneggbahn mountain station on the Felsenegg vantage point in the canton of…,,https://go.sygic.com/travel/place?id=poi:5179412
532,8503206,Wädenswil,Observation Tower,,['hiking'],https://go.sygic.com/travel/place?id=poi:11744431
533,8503207,Richterswil,Observation Tower,,['hiking'],https://go.sygic.com/travel/place?id=poi:11744431
534,8503207,Richterswil,Tower Sports,,['shopping'],https://go.sygic.com/travel/place?id=poi:10933929
535,8503208,Bäch,Observation Tower,,['hiking'],https://go.sygic.com/travel/place?id=poi:11905595
536,8503208,Bäch,Observation Tower,,['hiking'],https://go.sygic.com/travel/place?id=poi:11744431
537,8503208,Bäch,Tower Sports,,['shopping'],https://go.sygic.com/travel/place?id=poi:10933929
538,8503209,Pfäffikon SZ,Observation Tower,,['hiking'],https://go.sygic.com/travel/place?id=poi:11905595
539,8503209,Pfäffikon SZ,Observation Tower,,['hiking'],https://go.sygic.com/travel/place?id=poi:11744431
540,8503209,Pfäffikon SZ,Tower Sports,,['shopping'],https://go.sygic.com/travel/place?id=poi:10933929
541,8503210,Freienbach SBB,Observation Tower,,['hiking'],https://go.sygic.com/travel/place?id=poi:11905595
542,8503210,Freienbach SBB,Observation Tower,,['hiking'],https://go.sygic.com/travel/place?id=poi:11744431
543,8503210,Freienbach SBB,Tower Sports,,['shopping'],https://go.sygic.com/travel/place?id=poi:10933929
544,8503211,Altendorf,Observation Tower,,['hiking'],https://go.sygic.com/travel/place?id=poi:11905595
545,8503211,Altendorf,Observation Tower,,['hiking'],https://go.sygic.com/travel/place?id=poi:11744431
546,8503211,Altendorf,Tower Sports,,['shopping'],https://go.sygic.com/travel/place?id=poi:10933929
547,8503220,Lachen,Observation Tower,,['hiking'],https://go.sygic.com/travel/place?id=poi:11905595
548,8503220,Lachen,Observation Tower,,['hiking'],https://go.sygic.com/travel/place?id=poi:11744431
549,8503220,Lachen,Tower Sports,,['shopping'],https://go.sygic.com/travel/place?id=poi:10933929
550,8503221,Siebnen-Wangen,Observation Tower,,['hiking'],https://go.sygic.com/travel/place?id=poi:11905595
551,8503221,Siebnen-Wangen,Observation Tower,,['hiking'],https://go.sygic.com/travel/place?id=poi:11744431
552,8503221,Siebnen-Wangen,Tower Sports,,['shopping'],https://go.sygic.com/travel/place?id=poi:10933929
553,8503222,Schübelbach-Buttikon,Observation Tower,,['hiking'],https://go.sygic.com/travel/place?id=poi:11905595
554,8503301,Pfäffikon ZH,Observation Tower,,['hiking'],https://go.sygic.com/travel/place?id=poi:19015127
555,8503302,Fehraltorf,Observation Tower,,['hiking'],https://go.sygic.com/travel/place?id=poi:19015127
556,8503303,Illnau,Observation Tower,,['hiking'],https://go.sygic.com/travel/place?id=poi:19015127
557,8503303,Illnau,Wintsch-Tonercote,,['shopping'],https://go.sygic.com/travel/place?id=poi:13564328
558,8503304,Kemptthal,Wintsch-Tonercote,,['shopping'],https://go.sygic.com/travel/place?id=poi:13564328
559,8503305,Effretikon,Tower,,,https://go.sygic.com/travel/place?id=poi:37332332
560,8503305,Effretikon,Observation Tower,,['hiking'],https://go.sygic.com/travel/place?id=poi:19015127
561,8503305,Effretikon,Wintsch-Tonercote,,['shopping'],https://go.sygic.com/travel/place?id=poi:13564328
562,8503306,Dietlikon,Tower,,,https://go.sygic.com/travel/place?id=poi:37332332
563,8503306,Dietlikon,Coop Pronto Prime Tower,,['shopping'],https://go.sygic.com/travel/place?id=poi:10546192
564,8503306,Dietlikon,Prime Tower,,,https://go.sygic.com/travel/place?id=poi:24578886
565,8503306,Dietlikon,Kieser Training Prime Tower,,['doing_sports'],https://go.sygic.com/travel/place?id=poi:18511323
566,8503306,Dietlikon,Swisscom Tower,,,https://go.sygic.com/travel/place?id=poi:26987747
567,8503306,Dietlikon,Observation Tower,,['hiking'],https://go.sygic.com/travel/place?id=poi:19015127
568,8503306,Dietlikon,ZKB Prime Tower,,,https://go.sygic.com/travel/place?id=poi:8784267
569,8503306,Dietlikon,Wintsch-Tonercote,,['shopping'],https://go.sygic.com/travel/place?id=poi:13564328
570,8503306,Dietlikon,Parkshaus Prime Tower,,['traveling'],https://go.sygic.com/travel/place?id=poi:7027007
571,8503307,Bassersdorf,Tower,,,https://go.sygic.com/travel/place?id=poi:37332332
572,8503307,Bassersdorf,Swisscom Tower,,,https://go.sygic.com/travel/place?id=poi:26987747
573,8503307,Bassersdorf,Observation Tower,,['hiking'],https://go.sygic.com/travel/place?id=poi:19015127
574,8503307,Bassersdorf,Wintsch-Tonercote,,['shopping'],https://go.sygic.com/travel/place?id=poi:13564328
575,8503308,Kloten,Tower,,,https://go.sygic.com/travel/place?id=poi:37332332
576,8503308,Kloten,Coop Pronto Prime Tower,,['shopping'],https://go.sygic.com/travel/place?id=poi:10546192
577,8503308,Kloten,Prime Tower,,,https://go.sygic.com/travel/place?id=poi:24578886
578,8503308,Kloten,Kieser Training Prime Tower,,['doing_sports'],https://go.sygic.com/travel/place?id=poi:18511323
579,8503308,Kloten,Swisscom Tower,,,https://go.sygic.com/travel/place?id=poi:26987747
580,8503308,Kloten,ZKB Prime Tower,,,https://go.sygic.com/travel/place?id=poi:8784267
581,8503308,Kloten,Wintsch-Tonercote,,['shopping'],https://go.sygic.com/travel/place?id=poi:13564328
582,8503308,Kloten,Parkshaus Prime Tower,,['traveling'],https://go.sygic.com/travel/place?id=poi:7027007
583,8503310,Glattbrugg,Tower,,,https://go.sygic.com/travel/place?id=poi:37332332
584,8503310,Glattbrugg,Coop Pronto Prime Tower,,['shopping'],https://go.sygic.com/travel/place?id=poi:10546192
585,8503310,Glattbrugg,Prime Tower,,,https://go.sygic.com/travel/place?id=poi:24578886
586,8503310,Glattbrugg,Kieser Training Prime Tower,,['doing_sports'],https://go.sygic.com/travel/place?id=poi:18511323
587,8503310,Glattbrugg,Swisscom Tower,,,https://go.sygic.com/travel/place?id=poi:26987747
588,8503310,Glattbrugg,ZKB Prime Tower,,,https://go.sygic.com/travel/place?id=poi:8784267
589,8503310,Glattbrugg,Wintsch-Tonercote,,['shopping'],https://go.sygic.com/travel/place?id=poi:13564328
590,8503310,Glattbrugg,Parkshaus Prime Tower,,['traveling'],https://go.sygic.com/travel/place?id=poi:7027007
591,8503311,Rümlang,Tower,,,https://go.sygic.com/travel/place?id=poi:37332332
592,8503311,Rümlang,Coop Pronto Prime Tower,,['shopping'],https://go.sygic.com/travel/place?id=poi:10546192
593,8503311,Rümlang,Prime Tower,,,https://go.sygic.com/travel/place?id=poi:24578886
594,8503311,Rümlang,Kieser Training Prime Tower,,['doing_sports'],https://go.sygic.com/travel/place?id=poi:18511323
595,8503311,Rümlang,Swisscom Tower,,,https://go.sygic.com/travel/place?id=poi:26987747
596,8503311,Rümlang,ZKB Prime Tower,,,https://go.sygic.com/travel/place?id=poi:8784267
597,8503311,Rümlang,Wintsch-Tonercote,,['shopping'],https://go.sygic.com/travel/place?id=poi:13564328
598,8503311,Rümlang,Parkshaus Prime Tower,,['traveling'],https://go.sygic.com/travel/place?id=poi:7027007
599,8503312,Oberglatt,Coop Pronto Prime Tower,,['shopping'],https://go.sygic.com/travel/place?id=poi:10546192
600,8503312,Oberglatt,Prime Tower,,,https://go.sygic.com/travel/place?id=poi:24578886
601,8503312,Oberglatt,Kieser Training Prime Tower,,['doing_sports'],https://go.sygic.com/travel/place?id=poi:18511323
602,8503312,Oberglatt,Swisscom Tower,,,https://go.sygic.com/travel/place?id=poi:26987747
603,8503312,Oberglatt,ZKB Prime Tower,,,https://go.sygic.com/travel/place?id=poi:8784267
604,8503312,Oberglatt,Wintsch-Tonercote,,['shopping'],https://go.sygic.com/travel/place?id=poi:13564328
605,8503312,Oberglatt,Parkshaus Prime Tower,,['traveling'],https://go.sygic.com/travel/place?id=poi:7027007
606,8503315,Dielsdorf,Observation Tower,,['hiking'],https://go.sygic.com/travel/place?id=poi:6531039
607,8503340,Opfikon,Tower,,,https://go.sygic.com/travel/place?id=poi:37332332
608,8503340,Opfikon,Coop Pronto Prime Tower,,['shopping'],https://go.sygic.com/travel/place?id=poi:10546192
609,8503340,Opfikon,Prime Tower,,,https://go.sygic.com/travel/place?id=poi:24578886
610,8503340,Opfikon,Kieser Training Prime Tower,,['doing_sports'],https://go.sygic.com/travel/place?id=poi:18511323
611,8503340,Opfikon,Swisscom Tower,,,https://go.sygic.com/travel/place?id=poi:26987747
612,8503340,Opfikon,ZKB Prime Tower,,,https://go.sygic.com/travel/place?id=poi:8784267
613,8503340,Opfikon,Wintsch-Tonercote,,['shopping'],https://go.sygic.com/travel/place?id=poi:13564328
614,8503340,Opfikon,Parkshaus Prime Tower,,['traveling'],https://go.sygic.com/travel/place?id=poi:7027007
615,8503409,Bad Zurzach,Observation Tower,,['hiking'],https://go.sygic.com/travel/place?id=poi:19530662
616,8503501,Döttingen,Observation Tower,,['hiking'],https://go.sygic.com/travel/place?id=poi:19530662
617,8503503,Turgi,Observation Tower,,['hiking'],https://go.sygic.com/travel/place?id=poi:6531039
618,8503504,Baden,Observation Tower,,['hiking'],https://go.sygic.com/travel/place?id=poi:6531039
619,8503505,Wettingen,Observation Tower,,['hiking'],https://go.sygic.com/travel/place?id=poi:6531039
620,8503506,Killwangen-Spreitenbach,Observation Tower,,['hiking'],https://go.sygic.com/travel/place?id=poi:6531039
621,8503508,Dietikon,Observation Tower,,['hiking'],https://go.sygic.com/travel/place?id=poi:6531039
622,8503508,Dietikon,Coop Pronto Prime Tower,,['shopping'],https://go.sygic.com/travel/place?id=poi:10546192
623,8503508,Dietikon,Prime Tower,,,https://go.sygic.com/travel/place?id=poi:24578886
624,8503508,Dietikon,Kieser Training Prime Tower,,['doing_sports'],https://go.sygic.com/travel/place?id=poi:18511323
625,8503508,Dietikon,Swisscom Tower,,,https://go.sygic.com/travel/place?id=poi:26987747
626,8503508,Dietikon,ZKB Prime Tower,,,https://go.sygic.com/travel/place?id=poi:8784267
627,8503508,Dietikon,Parkshaus Prime Tower,,['traveling'],https://go.sygic.com/travel/place?id=poi:7027007
628,8503509,Schlieren,Tower,,,https://go.sygic.com/travel/place?id=poi:37332332
629,8503509,Schlieren,Coop Pronto Prime Tower,,['shopping'],https://go.sygic.com/travel/place?id=poi:10546192
630,8503509,Schlieren,Prime Tower,,,https://go.sygic.com/travel/place?id=poi:24578886
631,8503509,Schlieren,Kieser Training Prime Tower,,['doing_sports'],https://go.sygic.com/travel/place?id=poi:18511323
632,8503509,Schlieren,Swisscom Tower,,,https://go.sygic.com/travel/place?id=poi:26987747
633,8503509,Schlieren,ZKB Prime Tower,,,https://go.sygic.com/travel/place?id=poi:8784267
634,8503509,Schlieren,Parkshaus Prime Tower,,['traveling'],https://go.sygic.com/travel/place?id=poi:7027007
635,8503511,Neuenhof,Observation Tower,,['hiking'],https://go.sygic.com/travel/place?id=poi:6531039
636,8503512,Glanzenberg,Observation Tower,,['hiking'],https://go.sygic.com/travel/place?id=poi:6531039
637,8503512,Glanzenberg,Coop Pronto Prime Tower,,['shopping'],https://go.sygic.com/travel/place?id=poi:10546192
638,8503512,Glanzenberg,Prime Tower,,,https://go.sygic.com/travel/place?id=poi:24578886
639,8503512,Glanzenberg,Kieser Training Prime Tower,,['doing_sports'],https://go.sygic.com/travel/place?id=poi:18511323
640,8503512,Glanzenberg,Swisscom Tower,,,https://go.sygic.com/travel/place?id=poi:26987747
641,8503512,Glanzenberg,ZKB Prime Tower,,,https://go.sygic.com/travel/place?id=poi:8784267
642,8503512,Glanzenberg,Parkshaus Prime Tower,,['traveling'],https://go.sygic.com/travel/place?id=poi:7027007
643,8503526,Regensdorf-Watt,Tower,,,https://go.sygic.com/travel/place?id=poi:37332332
644,8503526,Regensdorf-Watt,Observation Tower,,['hiking'],https://go.sygic.com/travel/place?id=poi:6531039
645,8503526,Regensdorf-Watt,Coop Pronto Prime Tower,,['shopping'],https://go.sygic.com/travel/place?id=poi:10546192
646,8503526,Regensdorf-Watt,Prime Tower,,,https://go.sygic.com/travel/place?id=poi:24578886
647,8503526,Regensdorf-Watt,Kieser Training Prime Tower,,['doing_sports'],https://go.sygic.com/travel/place?id=poi:18511323
648,8503526,Regensdorf-Watt,Swisscom Tower,,,https://go.sygic.com/travel/place?id=poi:26987747
649,8503526,Regensdorf-Watt,ZKB Prime Tower,,,https://go.sygic.com/travel/place?id=poi:8784267
650,8503526,Regensdorf-Watt,Parkshaus Prime Tower,,['traveling'],https://go.sygic.com/travel/place?id=poi:7027007
651,8503528,Otelfingen,Observation Tower,,['hiking'],https://go.sygic.com/travel/place?id=poi:6531039
652,8503529,Würenlos,Observation Tower,,['hiking'],https://go.sygic.com/travel/place?id=poi:6531039
653,8504000,Pully-Nord,Lausanne Sauvabelin Tower,"The Tour de Sauvabelin is a wooden tower located in the Sauvabelin forest, Lausanne, Switzerland.","['hiking', 'sightseeing']",https://go.sygic.com/travel/place?id=poi:10638
654,8504000,Pully-Nord,Ale Tower,This cylindrical tower is a silent remnant of Lausanne's medieval past when it served as a part of the fortification.,"['hiking', 'sightseeing']",https://go.sygic.com/travel/place?id=poi:10502
655,8504000,Pully-Nord,Observation Tower,,['hiking'],https://go.sygic.com/travel/place?id=poi:21569256
656,8504003,Bossière,Lausanne Sauvabelin Tower,"The Tour de Sauvabelin is a wooden tower located in the Sauvabelin forest, Lausanne, Switzerland.","['hiking', 'sightseeing']",https://go.sygic.com/travel/place?id=poi:10638
657,8504003,Bossière,Ale Tower,This cylindrical tower is a silent remnant of Lausanne's medieval past when it served as a part of the fortification.,"['hiking', 'sightseeing']",https://go.sygic.com/travel/place?id=poi:10502
658,8504003,Bossière,Observation Tower,,['hiking'],https://go.sygic.com/travel/place?id=poi:21569256
659,8504003,Bossière,Mont Pèlerin TV Tower,,,https://go.sygic.com/travel/place?id=poi:20305358
660,8504007,Moreillon,Observation Tower,,['hiking'],https://go.sygic.com/travel/place?id=poi:21569256
661,8504007,Moreillon,Mont Pèlerin TV Tower,,,https://go.sygic.com/travel/place?id=poi:20305358
662,8504010,La Conversion,Lausanne Sauvabelin Tower,"The Tour de Sauvabelin is a wooden tower located in the Sauvabelin forest, Lausanne, Switzerland.","['hiking', 'sightseeing']",https://go.sygic.com/travel/place?id=poi:10638
663,8504010,La Conversion,Ale Tower,This cylindrical tower is a silent remnant of Lausanne's medieval past when it served as a part of the fortification.,"['hiking', 'sightseeing']",https://go.sygic.com/travel/place?id=poi:10502
664,8504010,La Conversion,Observation Tower,,['hiking'],https://go.sygic.com/travel/place?id=poi:21569256
665,8504011,Grandvaux,Lausanne Sauvabelin Tower,"The Tour de Sauvabelin is a wooden tower located in the Sauvabelin forest, Lausanne, Switzerland.","['hiking', 'sightseeing']",https://go.sygic.com/travel/place?id=poi:10638
666,8504011,Grandvaux,Ale Tower,This cylindrical tower is a silent remnant of Lausanne's medieval past when it served as a part of the fortification.,"['hiking', 'sightseeing']",https://go.sygic.com/travel/place?id=poi:10502
667,8504011,Grandvaux,Observation Tower,,['hiking'],https://go.sygic.com/travel/place?id=poi:21569256
668,8504011,Grandvaux,Mont Pèlerin TV Tower,,,https://go.sygic.com/travel/place?id=poi:20305358
669,8504014,Palézieux,Mont Pèlerin TV Tower,,,https://go.sygic.com/travel/place?id=poi:20305358
670,8504015,Vevey-Funi,Mont Pèlerin TV Tower,,,https://go.sygic.com/travel/place?id=poi:20305358
671,8504020,Oron,Mont Pèlerin TV Tower,,,https://go.sygic.com/travel/place?id=poi:20305358
672,8504027,Neyruz,Henry Tower,,['sightseeing'],https://go.sygic.com/travel/place?id=poi:35429511
673,8504028,Rosé,Henry Tower,,['sightseeing'],https://go.sygic.com/travel/place?id=poi:35429511
674,8504029,Matran,Observation Tower,,['hiking'],https://go.sygic.com/travel/place?id=poi:9020418
675,8504029,Matran,Henry Tower,,['sightseeing'],https://go.sygic.com/travel/place?id=poi:35429511
676,8504030,Villars-sur-Glâne,Observation Tower,,['hiking'],https://go.sygic.com/travel/place?id=poi:9020418
677,8504030,Villars-sur-Glâne,Henry Tower,,['sightseeing'],https://go.sygic.com/travel/place?id=poi:35429511
678,8504040,Corseaux-Cornalles,Mont Pèlerin TV Tower,,,https://go.sygic.com/travel/place?id=poi:20305358
679,8504100,Fribourg/Freiburg,Observation Tower,,['hiking'],https://go.sygic.com/travel/place?id=poi:9020418
680,8504100,Fribourg/Freiburg,Henry Tower,,['sightseeing'],https://go.sygic.com/travel/place?id=poi:35429511
681,8504101,Düdingen,Observation Tower,,['hiking'],https://go.sygic.com/travel/place?id=poi:9020418
682,8504101,Düdingen,Henry Tower,,['sightseeing'],https://go.sygic.com/travel/place?id=poi:35429511
683,8504102,Schmitten,Observation Tower,,['hiking'],https://go.sygic.com/travel/place?id=poi:9020418
684,8504103,Flamatt,Observation Tower,,['hiking'],https://go.sygic.com/travel/place?id=poi:5463570
685,8504104,Thörishaus Station,Zytglogge Tower,"The Zytglogge is a landmark medieval tower in Bern, Switzerland. Built in the early 13th century, it has served the city as guard tower,…",['sightseeing'],https://go.sygic.com/travel/place?id=poi:10783
686,8504104,Thörishaus Station,Prison Tower,"The Käfigturm is a medieval tower in Bern, Switzerland. It is part of the UNESCO Cultural World Heritage Site of the Old City of Bern and…","['discovering', 'sightseeing']",https://go.sygic.com/travel/place?id=poi:10690
687,8504104,Thörishaus Station,Blood tower,,['sightseeing'],https://go.sygic.com/travel/place?id=poi:6739948
688,8504104,Thörishaus Station,Dutch tower,The Holländerturm is a former defensive tower in the old city of Bern in Switzerland.,,https://go.sygic.com/travel/place?id=poi:6729657
689,8504104,Thörishaus Station,Observation Tower,,['hiking'],https://go.sygic.com/travel/place?id=poi:5463570
690,8504105,Niederwangen,Zytglogge Tower,"The Zytglogge is a landmark medieval tower in Bern, Switzerland. Built in the early 13th century, it has served the city as guard tower,…",['sightseeing'],https://go.sygic.com/travel/place?id=poi:10783
691,8504105,Niederwangen,Prison Tower,"The Käfigturm is a medieval tower in Bern, Switzerland. It is part of the UNESCO Cultural World Heritage Site of the Old City of Bern and…","['discovering', 'sightseeing']",https://go.sygic.com/travel/place?id=poi:10690
692,8504105,Niederwangen,Blood tower,,['sightseeing'],https://go.sygic.com/travel/place?id=poi:6739948
693,8504105,Niederwangen,Dutch tower,The Holländerturm is a former defensive tower in the old city of Bern in Switzerland.,,https://go.sygic.com/travel/place?id=poi:6729657
694,8504105,Niederwangen,Observation Tower,,['hiking'],https://go.sygic.com/travel/place?id=poi:5463570
695,8504106,Bern Bümpliz Süd,Zytglogge Tower,"The Zytglogge is a landmark medieval tower in Bern, Switzerland. Built in the early 13th century, it has served the city as guard tower,…",['sightseeing'],https://go.sygic.com/travel/place?id=poi:10783
696,8504106,Bern Bümpliz Süd,Prison Tower,"The Käfigturm is a medieval tower in Bern, Switzerland. It is part of the UNESCO Cultural World Heritage Site of the Old City of Bern and…","['discovering', 'sightseeing']",https://go.sygic.com/travel/place?id=poi:10690
697,8504106,Bern Bümpliz Süd,Blood tower,,['sightseeing'],https://go.sygic.com/travel/place?id=poi:6739948
698,8504106,Bern Bümpliz Süd,Dutch tower,The Holländerturm is a former defensive tower in the old city of Bern in Switzerland.,,https://go.sygic.com/travel/place?id=poi:6729657
699,8504106,Bern Bümpliz Süd,Observation Tower,,['hiking'],https://go.sygic.com/travel/place?id=poi:5463570
700,8504108,Bern Europaplatz,Zytglogge Tower,"The Zytglogge is a landmark medieval tower in Bern, Switzerland. Built in the early 13th century, it has served the city as guard tower,…",['sightseeing'],https://go.sygic.com/travel/place?id=poi:10783
701,8504108,Bern Europaplatz,Prison Tower,"The Käfigturm is a medieval tower in Bern, Switzerland. It is part of the UNESCO Cultural World Heritage Site of the Old City of Bern and…","['discovering', 'sightseeing']",https://go.sygic.com/travel/place?id=poi:10690
702,8504108,Bern Europaplatz,Blood tower,,['sightseeing'],https://go.sygic.com/travel/place?id=poi:6739948
703,8504108,Bern Europaplatz,Dutch tower,The Holländerturm is a former defensive tower in the old city of Bern in Switzerland.,,https://go.sygic.com/travel/place?id=poi:6729657
704,8504108,Bern Europaplatz,Observation Tower,,['hiking'],https://go.sygic.com/travel/place?id=poi:5463570
705,8504113,Wünnewil,Observation Tower,,['hiking'],https://go.sygic.com/travel/place?id=poi:9020418
706,8504115,Thörishaus Dorf,Zytglogge Tower,"The Zytglogge is a landmark medieval tower in Bern, Switzerland. Built in the early 13th century, it has served the city as guard tower,…",['sightseeing'],https://go.sygic.com/travel/place?id=poi:10783
707,8504115,Thörishaus Dorf,Prison Tower,"The Käfigturm is a medieval tower in Bern, Switzerland. It is part of the UNESCO Cultural World Heritage Site of the Old City of Bern and…","['discovering', 'sightseeing']",https://go.sygic.com/travel/place?id=poi:10690
708,8504115,Thörishaus Dorf,Blood tower,,['sightseeing'],https://go.sygic.com/travel/place?id=poi:6739948
709,8504115,Thörishaus Dorf,Dutch tower,The Holländerturm is a former defensive tower in the old city of Bern in Switzerland.,,https://go.sygic.com/travel/place?id=poi:6729657
710,8504115,Thörishaus Dorf,Observation Tower,,['hiking'],https://go.sygic.com/travel/place?id=poi:5463570
711,8504117,Oberwangen,Zytglogge Tower,"The Zytglogge is a landmark medieval tower in Bern, Switzerland. Built in the early 13th century, it has served the city as guard tower,…",['sightseeing'],https://go.sygic.com/travel/place?id=poi:10783
712,8504117,Oberwangen,Prison Tower,"The Käfigturm is a medieval tower in Bern, Switzerland. It is part of the UNESCO Cultural World Heritage Site of the Old City of Bern and…","['discovering', 'sightseeing']",https://go.sygic.com/travel/place?id=poi:10690
713,8504117,Oberwangen,Blood tower,,['sightseeing'],https://go.sygic.com/travel/place?id=poi:6739948
714,8504117,Oberwangen,Dutch tower,The Holländerturm is a former defensive tower in the old city of Bern in Switzerland.,,https://go.sygic.com/travel/place?id=poi:6729657
715,8504117,Oberwangen,Observation Tower,,['hiking'],https://go.sygic.com/travel/place?id=poi:5463570
716,8504128,Murten/Morat,Observation Tower,,['hiking'],https://go.sygic.com/travel/place?id=poi:7685559
717,8504128,Murten/Morat,Observation Tower,,['hiking'],https://go.sygic.com/travel/place?id=poi:7121669
718,8504128,Murten/Morat,Observation Tower,,['hiking'],https://go.sygic.com/travel/place?id=poi:9045582
719,8504128,Murten/Morat,Observation Tower,,['hiking'],https://go.sygic.com/travel/place?id=poi:11625489
720,8504128,Murten/Morat,Observation Tower,,['hiking'],https://go.sygic.com/travel/place?id=poi:9020418
721,8504128,Murten/Morat,Observation Tower,,['hiking'],https://go.sygic.com/travel/place?id=poi:16589194
722,8504128,Murten/Morat,Observation Tower,,['hiking'],https://go.sygic.com/travel/place?id=poi:12743439
723,8504129,Galmiz,Observation Tower,,['hiking'],https://go.sygic.com/travel/place?id=poi:7685559
724,8504129,Galmiz,Observation Tower,,['hiking'],https://go.sygic.com/travel/place?id=poi:7121669
725,8504129,Galmiz,Observation Tower,,['hiking'],https://go.sygic.com/travel/place?id=poi:9045582
726,8504129,Galmiz,Observation Tower,,['hiking'],https://go.sygic.com/travel/place?id=poi:11625489
727,8504129,Galmiz,Observation Tower,,['hiking'],https://go.sygic.com/travel/place?id=poi:16589194
728,8504129,Galmiz,Observation Tower,,['hiking'],https://go.sygic.com/travel/place?id=poi:12743439
729,8504130,Yvonand,Observation Tower,,['hiking'],https://go.sygic.com/travel/place?id=poi:19015130
730,8504131,Cheyres,Observation Tower,,['hiking'],https://go.sygic.com/travel/place?id=poi:19015130
731,8504138,Grolley,Observation Tower,,['hiking'],https://go.sygic.com/travel/place?id=poi:9020418
732,8504138,Grolley,Henry Tower,,['sightseeing'],https://go.sygic.com/travel/place?id=poi:35429511
733,8504200,Yverdon-les-Bains,Observation Tower,,['hiking'],https://go.sygic.com/travel/place?id=poi:19015130
734,8504200,Yverdon-les-Bains,Observation Tower,,['hiking'],https://go.sygic.com/travel/place?id=poi:33617557
735,8504201,Grandson,Observation Tower,,['hiking'],https://go.sygic.com/travel/place?id=poi:19015130
736,8504203,Concise,Observation Tower,,['hiking'],https://go.sygic.com/travel/place?id=poi:19015130
737,8504208,Boudry,The Prison Tower ,This medieval tower served for imprisoning the culprits throughout the history. Nowadays it serves as a perfect vantage point.,"['hiking', 'sightseeing']",https://go.sygic.com/travel/place?id=poi:10752
738,8504209,Colombier,The Prison Tower ,This medieval tower served for imprisoning the culprits throughout the history. Nowadays it serves as a perfect vantage point.,"['hiking', 'sightseeing']",https://go.sygic.com/travel/place?id=poi:10752
739,8504219,Auvernier,The Prison Tower ,This medieval tower served for imprisoning the culprits throughout the history. Nowadays it serves as a perfect vantage point.,"['hiking', 'sightseeing']",https://go.sygic.com/travel/place?id=poi:10752
740,8504220,Neuchâtel-Serrières,The Prison Tower ,This medieval tower served for imprisoning the culprits throughout the history. Nowadays it serves as a perfect vantage point.,"['hiking', 'sightseeing']",https://go.sygic.com/travel/place?id=poi:10752
741,8504221,Neuchâtel,Observation Tower,,['hiking'],https://go.sygic.com/travel/place?id=poi:7685559
742,8504221,Neuchâtel,Observation Tower,,['hiking'],https://go.sygic.com/travel/place?id=poi:7121669
743,8504221,Neuchâtel,The Prison Tower ,This medieval tower served for imprisoning the culprits throughout the history. Nowadays it serves as a perfect vantage point.,"['hiking', 'sightseeing']",https://go.sygic.com/travel/place?id=poi:10752
744,8504222,St-Blaise CFF,Observation Tower,,['hiking'],https://go.sygic.com/travel/place?id=poi:7685559
745,8504222,St-Blaise CFF,Observation Tower,,['hiking'],https://go.sygic.com/travel/place?id=poi:7121669
746,8504222,St-Blaise CFF,Observation Tower,,['hiking'],https://go.sygic.com/travel/place?id=poi:9045582
747,8504222,St-Blaise CFF,The Prison Tower ,This medieval tower served for imprisoning the culprits throughout the history. Nowadays it serves as a perfect vantage point.,"['hiking', 'sightseeing']",https://go.sygic.com/travel/place?id=poi:10752
748,8504223,Cornaux,Observation Tower,,['hiking'],https://go.sygic.com/travel/place?id=poi:7685559
749,8504223,Cornaux,Observation Tower,,['hiking'],https://go.sygic.com/travel/place?id=poi:7121669
750,8504223,Cornaux,Observation Tower,,['hiking'],https://go.sygic.com/travel/place?id=poi:9045582
751,8504223,Cornaux,The Prison Tower ,This medieval tower served for imprisoning the culprits throughout the history. Nowadays it serves as a perfect vantage point.,"['hiking', 'sightseeing']",https://go.sygic.com/travel/place?id=poi:10752
752,8504224,Cressier NE,Observation Tower,,['hiking'],https://go.sygic.com/travel/place?id=poi:7685559
753,8504224,Cressier NE,Observation Tower,,['hiking'],https://go.sygic.com/travel/place?id=poi:7121669
754,8504224,Cressier NE,Observation Tower,,['hiking'],https://go.sygic.com/travel/place?id=poi:9045582
755,8504225,Le Landeron,Observation Tower,,['hiking'],https://go.sygic.com/travel/place?id=poi:7685559
756,8504225,Le Landeron,Observation Tower,,['hiking'],https://go.sygic.com/travel/place?id=poi:7121669
757,8504225,Le Landeron,Observation Tower,,['hiking'],https://go.sygic.com/travel/place?id=poi:9045582
758,8504226,La Neuveville,Observation Tower,,['hiking'],https://go.sygic.com/travel/place?id=poi:7685559
759,8504226,La Neuveville,Observation Tower,,['hiking'],https://go.sygic.com/travel/place?id=poi:9045582
760,8504236,Les Geneveys-sur-Coffrane,Observation Tower,,['hiking'],https://go.sygic.com/travel/place?id=poi:8788229
761,8504236,Les Geneveys-sur-Coffrane,The Prison Tower ,This medieval tower served for imprisoning the culprits throughout the history. Nowadays it serves as a perfect vantage point.,"['hiking', 'sightseeing']",https://go.sygic.com/travel/place?id=poi:10752
762,8504237,Les Hauts-Geneveys,Observation Tower,,['hiking'],https://go.sygic.com/travel/place?id=poi:8788229
763,8504237,Les Hauts-Geneveys,The Prison Tower ,This medieval tower served for imprisoning the culprits throughout the history. Nowadays it serves as a perfect vantage point.,"['hiking', 'sightseeing']",https://go.sygic.com/travel/place?id=poi:10752
764,8504302,Reuchenette-Péry,Tower of Moron,"This pleasant, undemanding hike is well worth the efforts - the lookout tower will reward you with fantastic views of Jurassic mountains.",['hiking'],https://go.sygic.com/travel/place?id=poi:10761
765,8504314,La Chaux-de-Fonds,Observation Tower,,['hiking'],https://go.sygic.com/travel/place?id=poi:7227605
766,8504314,La Chaux-de-Fonds,Observation Tower,,['hiking'],https://go.sygic.com/travel/place?id=poi:8788229
767,8504316,Le Locle,Observation Tower,,['hiking'],https://go.sygic.com/travel/place?id=poi:7227605
768,8504316,Le Locle,Observation Tower,,['hiking'],https://go.sygic.com/travel/place?id=poi:8788229
769,8504400,Kerzers,Observation Tower,,['hiking'],https://go.sygic.com/travel/place?id=poi:9045582
770,8504400,Kerzers,Observation Tower,,['hiking'],https://go.sygic.com/travel/place?id=poi:11625489
771,8504400,Kerzers,Observation Tower,,['hiking'],https://go.sygic.com/travel/place?id=poi:16589194
772,8504400,Kerzers,Observation Tower,,['hiking'],https://go.sygic.com/travel/place?id=poi:12743439
773,8504410,Zollikofen,Zytglogge Tower,"The Zytglogge is a landmark medieval tower in Bern, Switzerland. Built in the early 13th century, it has served the city as guard tower,…",['sightseeing'],https://go.sygic.com/travel/place?id=poi:10783
774,8504410,Zollikofen,Prison Tower,"The Käfigturm is a medieval tower in Bern, Switzerland. It is part of the UNESCO Cultural World Heritage Site of the Old City of Bern and…","['discovering', 'sightseeing']",https://go.sygic.com/travel/place?id=poi:10690
775,8504410,Zollikofen,Blood tower,,['sightseeing'],https://go.sygic.com/travel/place?id=poi:6739948
776,8504410,Zollikofen,Dutch tower,The Holländerturm is a former defensive tower in the old city of Bern in Switzerland.,,https://go.sygic.com/travel/place?id=poi:6729657
777,8504410,Zollikofen,Observation Tower,,['hiking'],https://go.sygic.com/travel/place?id=poi:5463570
778,8504411,Münchenbuchsee,Zytglogge Tower,"The Zytglogge is a landmark medieval tower in Bern, Switzerland. Built in the early 13th century, it has served the city as guard tower,…",['sightseeing'],https://go.sygic.com/travel/place?id=poi:10783
779,8504411,Münchenbuchsee,Prison Tower,"The Käfigturm is a medieval tower in Bern, Switzerland. It is part of the UNESCO Cultural World Heritage Site of the Old City of Bern and…","['discovering', 'sightseeing']",https://go.sygic.com/travel/place?id=poi:10690
780,8504411,Münchenbuchsee,Blood tower,,['sightseeing'],https://go.sygic.com/travel/place?id=poi:6739948
781,8504411,Münchenbuchsee,Dutch tower,The Holländerturm is a former defensive tower in the old city of Bern in Switzerland.,,https://go.sygic.com/travel/place?id=poi:6729657
782,8505217,Mezzovico,Tower,,,https://go.sygic.com/travel/place?id=poi:12992555
783,8505218,Taverne-Torricella,Tower,,,https://go.sygic.com/travel/place?id=poi:12992555
784,8505218,Taverne-Torricella,Observation Tower,,['hiking'],https://go.sygic.com/travel/place?id=poi:15348453
785,8505219,Lamone-Cadempino,Tower,,,https://go.sygic.com/travel/place?id=poi:12992555
786,8505219,Lamone-Cadempino,Observation Tower,,['hiking'],https://go.sygic.com/travel/place?id=poi:15348453
787,8505300,Lugano,Tower,,,https://go.sygic.com/travel/place?id=poi:12992555
788,8505300,Lugano,Observation Tower,,['hiking'],https://go.sygic.com/travel/place?id=poi:15348453
789,8505301,Lugano-Paradiso,Tower,,,https://go.sygic.com/travel/place?id=poi:12992555
790,8505301,Lugano-Paradiso,Observation Tower,,['hiking'],https://go.sygic.com/travel/place?id=poi:15348453
791,8505302,Melide,Observation Tower,,['hiking'],https://go.sygic.com/travel/place?id=poi:15348453
792,8505303,Maroggia-Melano,Observation Tower,,['hiking'],https://go.sygic.com/travel/place?id=poi:15348453
793,8505304,Capolago-Riva S. Vitale,Observation Tower,,['hiking'],https://go.sygic.com/travel/place?id=poi:15348453
794,8505306,Balerna,Observation Tower,,['hiking'],https://go.sygic.com/travel/place?id=poi:12044660
795,8505307,Chiasso,Tower,,,https://go.sygic.com/travel/place?id=poi:10939666
796,8505307,Chiasso,Observation Tower,,['hiking'],https://go.sygic.com/travel/place?id=poi:12044660
797,8505408,Ranzo-S. Abbondio,old tower,,,https://go.sygic.com/travel/place?id=poi:10297545
798,8505410,Gerra (Gambarogno),old tower,,,https://go.sygic.com/travel/place?id=poi:10297545
799,8506000,Winterthur,Wintsch-Tonercote,,['shopping'],https://go.sygic.com/travel/place?id=poi:13564328
800,8506041,Embrach-Rorbas,Wintsch-Tonercote,,['shopping'],https://go.sygic.com/travel/place?id=poi:13564328
801,8506042,Pfungen,Wintsch-Tonercote,,['shopping'],https://go.sygic.com/travel/place?id=poi:13564328
802,8506043,Winterthur Wülflingen,Wintsch-Tonercote,,['shopping'],https://go.sygic.com/travel/place?id=poi:13564328
803,8506044,Winterthur Töss,Wintsch-Tonercote,,['shopping'],https://go.sygic.com/travel/place?id=poi:13564328
804,8506125,Altnau,Tower,,,https://go.sygic.com/travel/place?id=poi:14920323
805,8506125,Altnau,Tower,,,https://go.sygic.com/travel/place?id=poi:14920317
806,8506125,Altnau,Tower,,,https://go.sygic.com/travel/place?id=poi:14925807
807,8506125,Altnau,Tower,,,https://go.sygic.com/travel/place?id=poi:14922312
808,8506128,Kreuzlingen Hafen,Tower,,,https://go.sygic.com/travel/place?id=poi:18764969
809,8506128,Kreuzlingen Hafen,Tower,,,https://go.sygic.com/travel/place?id=poi:14920323
810,8506128,Kreuzlingen Hafen,Tower,,,https://go.sygic.com/travel/place?id=poi:14920317
811,8506128,Kreuzlingen Hafen,Tower,,,https://go.sygic.com/travel/place?id=poi:14925807
812,8506128,Kreuzlingen Hafen,Tower,,,https://go.sygic.com/travel/place?id=poi:14922312
813,8506128,Kreuzlingen Hafen,Observation Tower,,['hiking'],https://go.sygic.com/travel/place?id=poi:3061670
814,8506131,Kreuzlingen,Tower,,,https://go.sygic.com/travel/place?id=poi:18764969
815,8506131,Kreuzlingen,Tower,,,https://go.sygic.com/travel/place?id=poi:14920323
816,8506131,Kreuzlingen,Tower,,,https://go.sygic.com/travel/place?id=poi:14920317
817,8506131,Kreuzlingen,Tower,,,https://go.sygic.com/travel/place?id=poi:14925807
818,8506131,Kreuzlingen,Tower,,,https://go.sygic.com/travel/place?id=poi:14922312
819,8506131,Kreuzlingen,Observation Tower,,['hiking'],https://go.sygic.com/travel/place?id=poi:3061670
820,8506132,Tägerwilen-Gottlieben,Tower,,,https://go.sygic.com/travel/place?id=poi:18764969
821,8506132,Tägerwilen-Gottlieben,Observation Tower,,['hiking'],https://go.sygic.com/travel/place?id=poi:3061670
822,8506135,Berlingen,Observation Tower,,['hiking'],https://go.sygic.com/travel/place?id=poi:14152785
823,8506135,Berlingen,Tower,,,https://go.sygic.com/travel/place?id=poi:18764969
824,8506135,Berlingen,Observation Tower,,['hiking'],https://go.sygic.com/travel/place?id=poi:3061670
825,8506135,Berlingen,Life Guard Tower,,,https://go.sygic.com/travel/place?id=poi:16702060
826,8506135,Berlingen,Life Guard Tower,,,https://go.sygic.com/travel/place?id=poi:16392125
827,8506139,Stein am Rhein,Observation Tower,,['hiking'],https://go.sygic.com/travel/place?id=poi:14152785
828,8506306,Rorschach Hafen,Observation Tower,,['hiking'],https://go.sygic.com/travel/place?id=poi:11714345
829,8506311,Rorschach,Observation Tower,,['hiking'],https://go.sygic.com/travel/place?id=poi:11714345
830,8506312,Staad,Observation Tower,,['hiking'],https://go.sygic.com/travel/place?id=poi:11714345
831,8506313,Rheineck,Observation Tower,,['hiking'],https://go.sygic.com/travel/place?id=poi:11714345
832,8506314,St. Margrethen,Observation Tower,,['hiking'],https://go.sygic.com/travel/place?id=poi:11714345
833,8506314,St. Margrethen,Martin's Tower,Its onion dome is presumably the largest one in Europe. Noteworthy for its frescoes and tiny military museum.,"['discovering', 'sightseeing']",https://go.sygic.com/travel/place?id=poi:9562
834,8506316,Au SG,Observation Tower,,['hiking'],https://go.sygic.com/travel/place?id=poi:11714345
835,8506317,Heerbrugg,Observation Tower,,['hiking'],https://go.sygic.com/travel/place?id=poi:11714345
836,8506318,Rebstein-Marbach,Observation Tower,,['hiking'],https://go.sygic.com/travel/place?id=poi:11714345
837,8506319,Altstätten SG,Observation Tower,,['hiking'],https://go.sygic.com/travel/place?id=poi:11714345
838,8506322,Rorschach Stadt,Observation Tower,,['hiking'],https://go.sygic.com/travel/place?id=poi:11714345
839,8507000,Bern,Zytglogge Tower,"The Zytglogge is a landmark medieval tower in Bern, Switzerland. Built in the early 13th century, it has served the city as guard tower,…",['sightseeing'],https://go.sygic.com/travel/place?id=poi:10783
840,8507000,Bern,Prison Tower,"The Käfigturm is a medieval tower in Bern, Switzerland. It is part of the UNESCO Cultural World Heritage Site of the Old City of Bern and…","['discovering', 'sightseeing']",https://go.sygic.com/travel/place?id=poi:10690
841,8507000,Bern,Blood tower,,['sightseeing'],https://go.sygic.com/travel/place?id=poi:6739948
842,8507000,Bern,Dutch tower,The Holländerturm is a former defensive tower in the old city of Bern in Switzerland.,,https://go.sygic.com/travel/place?id=poi:6729657
843,8507000,Bern,Observation Tower,,['hiking'],https://go.sygic.com/travel/place?id=poi:5463570
844,8507002,Ostermundigen,Zytglogge Tower,"The Zytglogge is a landmark medieval tower in Bern, Switzerland. Built in the early 13th century, it has served the city as guard tower,…",['sightseeing'],https://go.sygic.com/travel/place?id=poi:10783
845,8507002,Ostermundigen,Prison Tower,"The Käfigturm is a medieval tower in Bern, Switzerland. It is part of the UNESCO Cultural World Heritage Site of the Old City of Bern and…","['discovering', 'sightseeing']",https://go.sygic.com/travel/place?id=poi:10690
846,8507002,Ostermundigen,Blood tower,,['sightseeing'],https://go.sygic.com/travel/place?id=poi:6739948
847,8507002,Ostermundigen,Dutch tower,The Holländerturm is a former defensive tower in the old city of Bern in Switzerland.,,https://go.sygic.com/travel/place?id=poi:6729657
848,8507002,Ostermundigen,Observation Tower,,['hiking'],https://go.sygic.com/travel/place?id=poi:5463570
849,8507003,Gümligen,Zytglogge Tower,"The Zytglogge is a landmark medieval tower in Bern, Switzerland. Built in the early 13th century, it has served the city as guard tower,…",['sightseeing'],https://go.sygic.com/travel/place?id=poi:10783
850,8507003,Gümligen,Prison Tower,"The Käfigturm is a medieval tower in Bern, Switzerland. It is part of the UNESCO Cultural World Heritage Site of the Old City of Bern and…","['discovering', 'sightseeing']",https://go.sygic.com/travel/place?id=poi:10690
851,8507003,Gümligen,Blood tower,,['sightseeing'],https://go.sygic.com/travel/place?id=poi:6739948
852,8507003,Gümligen,Dutch tower,The Holländerturm is a former defensive tower in the old city of Bern in Switzerland.,,https://go.sygic.com/travel/place?id=poi:6729657
853,8507003,Gümligen,Observation Tower,,['hiking'],https://go.sygic.com/travel/place?id=poi:5463570
854,8507005,Rubigen,Zytglogge Tower,"The Zytglogge is a landmark medieval tower in Bern, Switzerland. Built in the early 13th century, it has served the city as guard tower,…",['sightseeing'],https://go.sygic.com/travel/place?id=poi:10783
855,8507005,Rubigen,Prison Tower,"The Käfigturm is a medieval tower in Bern, Switzerland. It is part of the UNESCO Cultural World Heritage Site of the Old City of Bern and…","['discovering', 'sightseeing']",https://go.sygic.com/travel/place?id=poi:10690
856,8507005,Rubigen,Blood tower,,['sightseeing'],https://go.sygic.com/travel/place?id=poi:6739948
857,8507005,Rubigen,Dutch tower,The Holländerturm is a former defensive tower in the old city of Bern in Switzerland.,,https://go.sygic.com/travel/place?id=poi:6729657
858,8507005,Rubigen,Observation Tower,,['hiking'],https://go.sygic.com/travel/place?id=poi:5463570
859,8508001,Schönbühl SBB,Zytglogge Tower,"The Zytglogge is a landmark medieval tower in Bern, Switzerland. Built in the early 13th century, it has served the city as guard tower,…",['sightseeing'],https://go.sygic.com/travel/place?id=poi:10783
860,8508001,Schönbühl SBB,Prison Tower,"The Käfigturm is a medieval tower in Bern, Switzerland. It is part of the UNESCO Cultural World Heritage Site of the Old City of Bern and…","['discovering', 'sightseeing']",https://go.sygic.com/travel/place?id=poi:10690
861,8508001,Schönbühl SBB,Blood tower,,['sightseeing'],https://go.sygic.com/travel/place?id=poi:6739948
862,8508001,Schönbühl SBB,Dutch tower,The Holländerturm is a former defensive tower in the old city of Bern in Switzerland.,,https://go.sygic.com/travel/place?id=poi:6729657
863,8508102,Murgenthal,Swiss Prime Tower Bornwald,,['hiking'],https://go.sygic.com/travel/place?id=poi:13185096
864,8508103,Rothrist,Swiss Prime Tower Bornwald,,['hiking'],https://go.sygic.com/travel/place?id=poi:13185096
865,8509002,Landquart,Tower,,,https://go.sygic.com/travel/place?id=poi:37434076
866,8509003,Maienfeld,Tower,,,https://go.sygic.com/travel/place?id=poi:37434076
867,8509004,Bad Ragaz,Tower,,,https://go.sygic.com/travel/place?id=poi:37434076
868,8516155,Lancy-Pont-Rouge,Molard Tower,A military tower from the 14th century dominating the Molard Square. Surrounded by the buzz of lively restaurants.,['sightseeing'],https://go.sygic.com/travel/place?id=poi:2609
869,8516155,Lancy-Pont-Rouge,Tower,,['sightseeing'],https://go.sygic.com/travel/place?id=poi:8839902
870,8516155,Lancy-Pont-Rouge,Tower,,,https://go.sygic.com/travel/place?id=poi:8301480
871,8516155,Lancy-Pont-Rouge,Monnetier-Mornex (FM towercast),,,https://go.sygic.com/travel/place?id=poi:4430596
872,8516155,Lancy-Pont-Rouge,Goldorak Tower (Air Traffic Control),,,https://go.sygic.com/travel/place?id=poi:26375031
873,8516155,Lancy-Pont-Rouge,Observation Tower,,['hiking'],https://go.sygic.com/travel/place?id=poi:13442042
874,8516155,Lancy-Pont-Rouge,Observation Tower,,['hiking'],https://go.sygic.com/travel/place?id=poi:6961111
875,8516161,Bern Wankdorf,Zytglogge Tower,"The Zytglogge is a landmark medieval tower in Bern, Switzerland. Built in the early 13th century, it has served the city as guard tower,…",['sightseeing'],https://go.sygic.com/travel/place?id=poi:10783
876,8516161,Bern Wankdorf,Prison Tower,"The Käfigturm is a medieval tower in Bern, Switzerland. It is part of the UNESCO Cultural World Heritage Site of the Old City of Bern and…","['discovering', 'sightseeing']",https://go.sygic.com/travel/place?id=poi:10690
877,8516161,Bern Wankdorf,Blood tower,,['sightseeing'],https://go.sygic.com/travel/place?id=poi:6739948
878,8516161,Bern Wankdorf,Dutch tower,The Holländerturm is a former defensive tower in the old city of Bern in Switzerland.,,https://go.sygic.com/travel/place?id=poi:6729657
879,8516161,Bern Wankdorf,Observation Tower,,['hiking'],https://go.sygic.com/travel/place?id=poi:5463570
880,8516219,Mellingen Heitersberg,Observation Tower,,['hiking'],https://go.sygic.com/travel/place?id=poi:6531039
881,8517131,Pratteln Salina Raurica,Exhibition Tower,"The Basler Messeturm is the third tallest building in Basel, Switzerland. Completed in 2003, it has 32 floors and is 105 m tall. ",['eating'],https://go.sygic.com/travel/place?id=poi:10563
882,8517131,Pratteln Salina Raurica,Tower,,,https://go.sygic.com/travel/place?id=poi:11425180
883,8517131,Pratteln Salina Raurica,Observation Tower,,['hiking'],https://go.sygic.com/travel/place?id=poi:14397896
884,8518452,Prilly-Malley,Lausanne Sauvabelin Tower,"The Tour de Sauvabelin is a wooden tower located in the Sauvabelin forest, Lausanne, Switzerland.","['hiking', 'sightseeing']",https://go.sygic.com/travel/place?id=poi:10638
885,8518452,Prilly-Malley,Ale Tower,This cylindrical tower is a silent remnant of Lausanne's medieval past when it served as a part of the fortification.,"['hiking', 'sightseeing']",https://go.sygic.com/travel/place?id=poi:10502
886,8518452,Prilly-Malley,Observation Tower,,['hiking'],https://go.sygic.com/travel/place?id=poi:21569256
887,8518963,Solothurn Allmend,Observation Tower,,['hiking'],https://go.sygic.com/travel/place?id=poi:7798701
888,8518963,Solothurn Allmend,Clock Tower,The clock tower is the Solothurn's oldest construction standing there since the 13th century.,['sightseeing'],https://go.sygic.com/travel/place?id=poi:10546
889,8519133,Fribourg/Freiburg Poya,Observation Tower,,['hiking'],https://go.sygic.com/travel/place?id=poi:9020418
890,8519133,Fribourg/Freiburg Poya,Henry Tower,,['sightseeing'],https://go.sygic.com/travel/place?id=poi:35429511
